{"schema":{"fields":[{"name":"index","type":"integer"},{"name":"index","type":"integer"},{"name":"Address","type":"string"},{"name":"Latitude","type":"number"},{"name":"Longitude","type":"number"},{"name":"X","type":"number"},{"name":"Y","type":"number"},{"name":"Distance from center","type":"number"},{"name":"Total Restaurants","type":"number"}],"primaryKey":["index"],"pandas_version":"0.20.0"},"data":[{"level_0":3,"index":3,"Address":"Sullivan Hall, Jamaica, NY 11439","Latitude":40.7212598343,"Longitude":-73.7966531358,"X":601629.5909825885,"Y":4508511.3046649713,"Distance from center":926.0129588719,"Total Restaurants":10.0},{"level_0":2,"index":2,"Address":"167-8 81st Ave, Jamaica, NY 11432","Latitude":40.7212968067,"Longitude":-73.8002045484,"X":601329.5909825885,"Y":4508511.3046649713,"Distance from center":804.6738469708,"Total Restaurants":3.0},{"level_0":1,"index":1,"Address":"80-16 164th Pl, Jamaica, NY 11432","Latitude":40.7213336699,"Longitude":-73.8037559675,"X":601029.5909825885,"Y":4508511.3046649713,"Distance from center":785.8116822743,"Total Restaurants":2.0},{"level_0":0,"index":0,"Address":"78-45 160th St, Queens, NY 11366","Latitude":40.7213704239,"Longitude":-73.8073073932,"X":600729.5909825885,"Y":4508511.3046649713,"Distance from center":876.0707733961,"Total Restaurants":1.0},{"level_0":9,"index":9,"Address":"Bent Hall, Jamaica, NY 11439","Latitude":40.7235813104,"Longitude":-73.7948352206,"X":601779.5909825885,"Y":4508771.1122861067,"Distance from center":832.1658488541,"Total Restaurants":1.0},{"level_0":8,"index":8,"Address":"77-41 170th St, Flushing, NY 11366","Latitude":40.7236183405,"Longitude":-73.7983867542,"X":601479.5909825885,"Y":4508771.1122861067,"Distance from center":626.4982043064,"Total Restaurants":9.0},{"level_0":7,"index":7,"Address":"77-31 166th St, Flushing, NY 11366","Latitude":40.7236552614,"Longitude":-73.8019382944,"X":601179.5909825885,"Y":4508771.1122861067,"Distance from center":522.0153254447,"Total Restaurants":1.0},{"level_0":6,"index":6,"Address":"162-19 77th Rd, Flushing, NY 11366","Latitude":40.723692073,"Longitude":-73.8054898411,"X":600879.5909825885,"Y":4508771.1122861067,"Distance from center":576.6281297328,"Total Restaurants":4.0},{"level_0":5,"index":5,"Address":"158-34 77th Ave, Flushing, NY 11366","Latitude":40.7237287753,"Longitude":-73.8090413944,"X":600579.5909825885,"Y":4508771.1122861067,"Distance from center":756.6372975205,"Total Restaurants":2.0},{"level_0":4,"index":4,"Address":"153-02 76th Rd, Flushing, NY 11367","Latitude":40.7237653684,"Longitude":-73.8125929543,"X":600279.5909825885,"Y":4508771.1122861067,"Distance from center":996.2429422581,"Total Restaurants":2.0},{"level_0":15,"index":15,"Address":"76-39 176th St, Flushing, NY 11366","Latitude":40.7259027552,"Longitude":-73.7930171777,"X":601929.5909825885,"Y":4509030.9199072411,"Distance from center":841.130192063,"Total Restaurants":3.0},{"level_0":14,"index":14,"Address":"76-22 173rd St, Queens, NY 11366","Latitude":40.725939843,"Longitude":-73.7965688324,"X":601629.5909825885,"Y":4509030.9199072411,"Distance from center":563.4713834793,"Total Restaurants":1.0},{"level_0":13,"index":13,"Address":"76-10 169th St, Flushing, NY 11366","Latitude":40.7259768215,"Longitude":-73.8001204936,"X":601329.5909825885,"Y":4509030.9199072411,"Distance from center":327.8719262151,"Total Restaurants":2.0},{"level_0":12,"index":12,"Address":"164-31 76th Ave, Queens, NY 11366","Latitude":40.7260136907,"Longitude":-73.8036721614,"X":601029.5909825885,"Y":4509030.9199072411,"Distance from center":278.3882181415,"Total Restaurants":1.0},{"level_0":11,"index":11,"Address":"160-32 75th Rd, Flushing, NY 11366","Latitude":40.7260504507,"Longitude":-73.8072238358,"X":600729.5909825885,"Y":4509030.9199072411,"Distance from center":476.9696007085,"Total Restaurants":16.0},{"level_0":10,"index":10,"Address":"75-19 Parsons Blvd, Fresh Meadows, NY 11366","Latitude":40.7260871014,"Longitude":-73.8107755167,"X":600429.5909825885,"Y":4509030.9199072411,"Distance from center":746.6592261534,"Total Restaurants":2.0},{"level_0":22,"index":22,"Address":"75-20 178th St, Queens, NY 11366","Latitude":40.7282241686,"Longitude":-73.7911990072,"X":602079.5909825885,"Y":4509290.7275283765,"Distance from center":950.0,"Total Restaurants":2.0},{"level_0":21,"index":21,"Address":"74-22 175th St, Flushing, NY 11366","Latitude":40.7282613141,"Longitude":-73.7947507829,"X":601779.5909825885,"Y":4509290.7275283765,"Distance from center":650.0,"Total Restaurants":3.0},{"level_0":20,"index":20,"Address":"73-17 171st St, Queens, NY 11366","Latitude":40.7282983502,"Longitude":-73.7983025652,"X":601479.5909825885,"Y":4509290.7275283765,"Distance from center":350.0,"Total Restaurants":4.0},{"level_0":19,"index":19,"Address":"71-64 168th St, Fresh Meadows, NY 11365","Latitude":40.7283352771,"Longitude":-73.801854354,"X":601179.5909825885,"Y":4509290.7275283765,"Distance from center":50.0,"Total Restaurants":3.0},{"level_0":18,"index":18,"Address":"72-04 164th St, Flushing, NY 11365","Latitude":40.7283720948,"Longitude":-73.8054061495,"X":600879.5909825885,"Y":4509290.7275283765,"Distance from center":250.0,"Total Restaurants":1.0},{"level_0":17,"index":17,"Address":"71-53 160th St, Flushing, NY 11365","Latitude":40.7284088032,"Longitude":-73.8089579515,"X":600579.5909825885,"Y":4509290.7275283765,"Distance from center":550.0,"Total Restaurants":1.0},{"level_0":16,"index":16,"Address":"15615 Aguilar Ave, Flushing, NY 11367","Latitude":40.7284454023,"Longitude":-73.81250976,"X":600279.5909825885,"Y":4509290.7275283765,"Distance from center":850.0,"Total Restaurants":4.0},{"level_0":28,"index":28,"Address":"6100 Utopia Pkwy, Fresh Meadows, NY 11365","Latitude":40.7305827538,"Longitude":-73.7929326058,"X":601929.5909825885,"Y":4509550.5351495119,"Distance from center":841.130192063,"Total Restaurants":3.0},{"level_0":27,"index":27,"Address":"70-17 173rd St, Flushing, NY 11365","Latitude":40.7306198477,"Longitude":-73.7964845091,"X":601629.5909825885,"Y":4509550.5351495119,"Distance from center":563.4713834793,"Total Restaurants":2.0},{"level_0":26,"index":26,"Address":"70-24 170th St, Flushing, NY 11365","Latitude":40.7306568322,"Longitude":-73.8000364191,"X":601329.5909825885,"Y":4509550.5351495119,"Distance from center":327.8719262151,"Total Restaurants":2.0},{"level_0":25,"index":25,"Address":"165-11 71st Ave, Flushing, NY 11365","Latitude":40.7306937075,"Longitude":-73.8035883356,"X":601029.5909825885,"Y":4509550.5351495119,"Distance from center":278.3882181415,"Total Restaurants":3.0},{"level_0":24,"index":24,"Address":"16201 71st Ave, Fresh Meadows, NY 11365","Latitude":40.7307304736,"Longitude":-73.8071402587,"X":600729.5909825885,"Y":4509550.5351495119,"Distance from center":476.9696007085,"Total Restaurants":3.0},{"level_0":23,"index":23,"Address":"63 Parsons Blvd, Queens, NY 11365","Latitude":40.7307671303,"Longitude":-73.8106921883,"X":600429.5909825885,"Y":4509550.5351495119,"Distance from center":746.6592261534,"Total Restaurants":3.0},{"level_0":34,"index":34,"Address":"68-26 Fresh Meadow Ln, Fresh Meadows, NY 11365","Latitude":40.7329413138,"Longitude":-73.7946663254,"X":601779.5909825885,"Y":4509810.3427706473,"Distance from center":832.1658488547,"Total Restaurants":null},{"level_0":33,"index":33,"Address":"171-07 69th Ave, Flushing, NY 11365","Latitude":40.732978356,"Longitude":-73.7982183564,"X":601479.5909825885,"Y":4509810.3427706473,"Distance from center":626.4982043072,"Total Restaurants":null},{"level_0":32,"index":32,"Address":"167-11 69th Ave, Flushing, NY 11365","Latitude":40.733015289,"Longitude":-73.801770394,"X":601179.5909825885,"Y":4509810.3427706473,"Distance from center":522.0153254456,"Total Restaurants":null},{"level_0":31,"index":31,"Address":"164 St\/69 Av, Queens, NY 11365","Latitude":40.7330521127,"Longitude":-73.8053224382,"X":600879.5909825885,"Y":4509810.3427706473,"Distance from center":576.6281297336,"Total Restaurants":null},{"level_0":30,"index":30,"Address":"67-24 161 St, Fresh Meadows, NY 11365","Latitude":40.7330888271,"Longitude":-73.808874489,"X":600579.5909825885,"Y":4509810.3427706473,"Distance from center":756.6372975211,"Total Restaurants":null},{"level_0":29,"index":29,"Address":"155-11 Jewel Ave, Queens, NY 11367","Latitude":40.7331254322,"Longitude":-73.8124265462,"X":600279.5909825885,"Y":4509810.3427706473,"Distance from center":996.2429422586,"Total Restaurants":1.0},{"level_0":38,"index":38,"Address":"65-39 173rd St, Flushing, NY 11365","Latitude":40.7352998484,"Longitude":-73.796400166,"X":601629.5909825885,"Y":4510070.1503917826,"Distance from center":926.0129588727,"Total Restaurants":null},{"level_0":37,"index":37,"Address":"65-41 169th St, Queens, NY 11365","Latitude":40.7353368391,"Longitude":-73.7999523248,"X":601329.5909825885,"Y":4510070.1503917826,"Distance from center":804.6738469717,"Total Restaurants":null},{"level_0":36,"index":36,"Address":"65-47 165th St, Flushing, NY 11365","Latitude":40.7353737204,"Longitude":-73.8035044901,"X":601029.5909825885,"Y":4510070.1503917826,"Distance from center":785.8116822752,"Total Restaurants":null},{"level_0":35,"index":35,"Address":"65-44 162nd St, Fresh Meadows, NY 11365","Latitude":40.7354104925,"Longitude":-73.8070566619,"X":600729.5909825885,"Y":4510070.1503917826,"Distance from center":876.0707733969,"Total Restaurants":null}]}