{"schema":{"fields":[{"name":"index","type":"integer"},{"name":"index","type":"integer"},{"name":"Address","type":"string"},{"name":"Latitude","type":"number"},{"name":"Longitude","type":"number"},{"name":"X","type":"number"},{"name":"Y","type":"number"},{"name":"Distance from center","type":"number"},{"name":"Total Restaurants","type":"number"}],"primaryKey":["index"],"pandas_version":"0.20.0"},"data":[{"level_0":6,"index":6,"Address":"67-01 Myrtle Ave, Glendale, NY 11385","Latitude":40.7016095999,"Longitude":-73.8864364762,"X":594074.3749542851,"Y":4506229.9547535619,"Distance from center":5992.4953066315,"Total Restaurants":10.0},{"level_0":5,"index":5,"Address":"6142 Central Ave, Ridgewood, NY 11385","Latitude":40.701677884,"Longitude":-73.8935374447,"X":593474.3749542851,"Y":4506229.9547535619,"Distance from center":5840.3767001796,"Total Restaurants":7.0},{"level_0":4,"index":4,"Address":"Forest Av\/69 Av, Queens, NY 11385","Latitude":40.7017457315,"Longitude":-73.9006384375,"X":592874.3749542851,"Y":4506229.9547535619,"Distance from center":5747.1732182005,"Total Restaurants":5.0},{"level_0":3,"index":3,"Address":"17-13 Woodbine St, Queens, NY 11385","Latitude":40.7018131422,"Longitude":-73.9077394543,"X":592274.3749542851,"Y":4506229.9547535619,"Distance from center":5715.7676649773,"Total Restaurants":10.0},{"level_0":2,"index":2,"Address":"371 Bleecker St, Brooklyn, NY 11237","Latitude":40.7018801163,"Longitude":-73.9148404951,"X":591674.3749542851,"Y":4506229.9547535619,"Distance from center":5747.1732182005,"Total Restaurants":13.0},{"level_0":1,"index":1,"Address":"1505 Dekalb Ave, Brooklyn, NY 11237","Latitude":40.7019466537,"Longitude":-73.9219415597,"X":591074.3749542851,"Y":4506229.9547535619,"Distance from center":5840.3767001796,"Total Restaurants":9.0},{"level_0":0,"index":0,"Address":"272 Melrose St, Brooklyn, NY 11206","Latitude":40.7020127544,"Longitude":-73.929042648,"X":590474.3749542851,"Y":4506229.9547535619,"Distance from center":5992.4953066315,"Total Restaurants":5.0},{"level_0":16,"index":16,"Address":"7915 Cooper Ave, Glendale, NY 11385","Latitude":40.7061865113,"Longitude":-73.8757063637,"X":594974.3749542851,"Y":4506749.5699958326,"Distance from center":5855.7663887829,"Total Restaurants":null},{"level_0":15,"index":15,"Address":"6907 Otto Rd, Glendale, NY 11385","Latitude":40.7062554617,"Longitude":-73.8828077924,"X":594374.3749542851,"Y":4506749.5699958326,"Distance from center":5604.4625076808,"Total Restaurants":null},{"level_0":14,"index":14,"Address":"65-45 Otto Rd, Flushing, NY 11385","Latitude":40.7063239754,"Longitude":-73.8899092456,"X":593774.3749542851,"Y":4506749.5699958326,"Distance from center":5408.3269131959,"Total Restaurants":null},{"level_0":13,"index":13,"Address":"6096 Putnam Ave, Ridgewood, NY 11385","Latitude":40.7063920524,"Longitude":-73.8970107231,"X":593174.3749542851,"Y":4506749.5699958326,"Distance from center":5273.518749374,"Total Restaurants":null},{"level_0":12,"index":12,"Address":"2019 Palmetto St, Ridgewood, NY 11385","Latitude":40.7064596926,"Longitude":-73.9041122249,"X":592574.3749542851,"Y":4506749.5699958326,"Distance from center":5204.8054718692,"Total Restaurants":null},{"level_0":11,"index":11,"Address":"466 Onderdonk Ave, Ridgewood, NY 11385","Latitude":40.7065268961,"Longitude":-73.9112137506,"X":591974.3749542851,"Y":4506749.5699958326,"Distance from center":5204.8054718692,"Total Restaurants":4.0},{"level_0":10,"index":10,"Address":"1055 Hart St, Brooklyn, NY 11237","Latitude":40.7065936627,"Longitude":-73.9183153003,"X":591374.3749542851,"Y":4506749.5699958326,"Distance from center":5273.518749374,"Total Restaurants":8.0},{"level_0":9,"index":9,"Address":"27 Stewart Ave, Brooklyn, NY 11237","Latitude":40.7066599927,"Longitude":-73.9254168736,"X":590774.3749542851,"Y":4506749.5699958326,"Distance from center":5408.3269131959,"Total Restaurants":10.0},{"level_0":8,"index":8,"Address":"77 Morgan Ave, Brooklyn, NY 11237","Latitude":40.7067258858,"Longitude":-73.9325184706,"X":590174.3749542851,"Y":4506749.5699958326,"Distance from center":5604.4625076808,"Total Restaurants":12.0},{"level_0":7,"index":7,"Address":"Johnson Av\/Bushwick Av, Brooklyn, NY 11206","Latitude":40.7067913422,"Longitude":-73.9396200909,"X":589574.3749542851,"Y":4506749.5699958326,"Distance from center":5855.7663887829,"Total Restaurants":7.0},{"level_0":29,"index":29,"Address":"Cooper Av\/88 St, Queens, NY 11379","Latitude":40.710762402,"Longitude":-73.8649747974,"X":595874.3749542851,"Y":4507269.1852381034,"Distance from center":5901.6946718717,"Total Restaurants":null},{"level_0":28,"index":28,"Address":"79-31 68th Rd, Queens, NY 11379","Latitude":40.710832019,"Longitude":-73.8720766861,"X":595274.3749542851,"Y":4507269.1852381034,"Distance from center":5556.0777532355,"Total Restaurants":null},{"level_0":27,"index":27,"Address":"67-56 73rd Pl, Flushing, NY 11379","Latitude":40.7109011992,"Longitude":-73.8791785994,"X":594674.3749542851,"Y":4507269.1852381034,"Distance from center":5256.4246403805,"Total Restaurants":null},{"level_0":26,"index":26,"Address":"69-16 Metropolitan Ave, Queens, NY 11379","Latitude":40.7109699425,"Longitude":-73.8862805374,"X":594074.3749542851,"Y":4507269.1852381034,"Distance from center":5010.9879265469,"Total Restaurants":null},{"level_0":25,"index":25,"Address":"64-47 65th Ln, Flushing, NY 11379","Latitude":40.7110382491,"Longitude":-73.8933824998,"X":593474.3749542851,"Y":4507269.1852381034,"Distance from center":4828.0430818292,"Total Restaurants":null},{"level_0":24,"index":24,"Address":"61-23 Menahan St, Queens, NY 11385","Latitude":40.7111061188,"Longitude":-73.9004844864,"X":592874.3749542851,"Y":4507269.1852381034,"Distance from center":4714.8700936504,"Total Restaurants":null},{"level_0":23,"index":23,"Address":"21-41 Harman St, Queens, NY 11385","Latitude":40.7111735517,"Longitude":-73.9075864972,"X":592274.3749542851,"Y":4507269.1852381034,"Distance from center":4676.5371804358,"Total Restaurants":null},{"level_0":22,"index":22,"Address":"323 Woodward Ave, Ridgewood, NY 11385","Latitude":40.7112405478,"Longitude":-73.914688532,"X":591674.3749542851,"Y":4507269.1852381034,"Distance from center":4714.8700936504,"Total Restaurants":null},{"level_0":21,"index":21,"Address":"281 Randolph St, Brooklyn, NY 11237","Latitude":40.711307107,"Longitude":-73.9217905905,"X":591074.3749542851,"Y":4507269.1852381034,"Distance from center":4828.0430818292,"Total Restaurants":null},{"level_0":20,"index":20,"Address":"161 Varick Ave, Brooklyn, NY 11237","Latitude":40.7113732294,"Longitude":-73.9288926727,"X":590474.3749542851,"Y":4507269.1852381034,"Distance from center":5010.9879265469,"Total Restaurants":null},{"level_0":19,"index":19,"Address":"342 Ten Eyck St, Brooklyn, NY 11206","Latitude":40.7114389149,"Longitude":-73.9359947785,"X":589874.3749542851,"Y":4507269.1852381034,"Distance from center":5256.4246403805,"Total Restaurants":null},{"level_0":18,"index":18,"Address":"750 Grand St STE 13, Brooklyn, NY 11211","Latitude":40.7115041636,"Longitude":-73.9430969075,"X":589274.3749542851,"Y":4507269.1852381034,"Distance from center":5556.0777532355,"Total Restaurants":null},{"level_0":17,"index":17,"Address":"26 Powers St, Brooklyn, NY 11211","Latitude":40.7115689754,"Longitude":-73.9501990597,"X":588674.3749542851,"Y":4507269.1852381034,"Distance from center":5901.6946718717,"Total Restaurants":null},{"level_0":43,"index":43,"Address":"6769 Woodhaven Blvd, Queens, NY 11374","Latitude":40.7154075553,"Longitude":-73.8613441257,"X":596174.3749542851,"Y":4507788.8004803741,"Distance from center":5699.9999999998,"Total Restaurants":null},{"level_0":42,"index":42,"Address":"80-01 Metropolitan Ave, Queens, NY 11379","Latitude":40.7154774022,"Longitude":-73.868446499,"X":595574.3749542851,"Y":4507788.8004803741,"Distance from center":5307.5418038861,"Total Restaurants":null},{"level_0":41,"index":41,"Address":"66-02 78th St, Flushing, NY 11379","Latitude":40.7155468121,"Longitude":-73.8755488971,"X":594974.3749542851,"Y":4507788.8004803741,"Distance from center":4956.8134925573,"Total Restaurants":null},{"level_0":40,"index":40,"Address":"64-10 Pleasantview St, Flushing, NY 11379","Latitude":40.7156157852,"Longitude":-73.8826513199,"X":594374.3749542851,"Y":4507788.8004803741,"Distance from center":4657.2524088778,"Total Restaurants":null},{"level_0":39,"index":39,"Address":"P486+73 New York, NY","Latitude":40.7156843214,"Longitude":-73.8897537672,"X":593774.3749542851,"Y":4507788.8004803741,"Distance from center":4419.2759587967,"Total Restaurants":null},{"level_0":38,"index":38,"Address":"26 Mt Olivet Crescent, Queens, NY 11379","Latitude":40.7157524208,"Longitude":-73.8968562389,"X":593174.3749542851,"Y":4507788.8004803741,"Distance from center":4253.2340636271,"Total Restaurants":null},{"level_0":37,"index":37,"Address":"60-56 60th Rd, Flushing, NY 11378","Latitude":40.7158200832,"Longitude":-73.9039587347,"X":592574.3749542851,"Y":4507788.8004803741,"Distance from center":4167.7331968347,"Total Restaurants":null},{"level_0":36,"index":36,"Address":"60-24 56th St, Flushing, NY 11378","Latitude":40.7158873087,"Longitude":-73.9110612547,"X":591974.3749542851,"Y":4507788.8004803741,"Distance from center":4167.7331968347,"Total Restaurants":null},{"level_0":35,"index":35,"Address":"47-12 Grand Ave, Flushing, NY 11378","Latitude":40.7159540973,"Longitude":-73.9181637985,"X":591374.3749542851,"Y":4507788.8004803741,"Distance from center":4253.2340636271,"Total Restaurants":null},{"level_0":34,"index":34,"Address":"1303 Grand St, Brooklyn, NY 11211","Latitude":40.716020449,"Longitude":-73.925266366,"X":590774.3749542851,"Y":4507788.8004803741,"Distance from center":4419.2759587967,"Total Restaurants":null},{"level_0":33,"index":33,"Address":"9 Rewe St, Brooklyn, NY 11211","Latitude":40.7160863638,"Longitude":-73.9323689572,"X":590174.3749542851,"Y":4507788.8004803741,"Distance from center":4657.2524088778,"Total Restaurants":null},{"level_0":32,"index":32,"Address":"73 Maspeth Ave, Brooklyn, NY 11211","Latitude":40.7161518416,"Longitude":-73.9394715717,"X":589574.3749542851,"Y":4507788.8004803741,"Distance from center":4956.8134925573,"Total Restaurants":null},{"level_0":31,"index":31,"Address":"351 Manhattan Ave #1R, Brooklyn, NY 11211","Latitude":40.7162168826,"Longitude":-73.9465742096,"X":588974.3749542851,"Y":4507788.8004803741,"Distance from center":5307.5418038861,"Total Restaurants":null},{"level_0":30,"index":30,"Address":"251 N 8th St, Brooklyn, NY 11211","Latitude":40.7162814866,"Longitude":-73.9536768705,"X":588374.3749542851,"Y":4507788.8004803741,"Distance from center":5699.9999999998,"Total Restaurants":null},{"level_0":58,"index":58,"Address":"66-01 Fleet St, Forest Hills, NY 11375","Latitude":40.720052584,"Longitude":-73.8577129443,"X":596474.3749542851,"Y":4508308.4157226449,"Distance from center":5556.0777532354,"Total Restaurants":null},{"level_0":57,"index":57,"Address":"85-2 65th Ave, Rego Park, NY 11374","Latitude":40.7201226608,"Longitude":-73.8648158023,"X":595874.3749542851,"Y":4508308.4157226449,"Distance from center":5117.6166327694,"Total Restaurants":null},{"level_0":56,"index":56,"Address":"82-38 Penelope Ave, Flushing, NY 11379","Latitude":40.7201923006,"Longitude":-73.8719186853,"X":595274.3749542851,"Y":4508308.4157226449,"Distance from center":4714.8700936503,"Total Restaurants":null},{"level_0":55,"index":55,"Address":"Juniper Valley Park, Juniper Blvd., Lutheran Ave., 71 St, Dry Harbor Rd, Queens, NY 11379","Latitude":40.7202615035,"Longitude":-73.879021593,"X":594674.3749542851,"Y":4508308.4157226449,"Distance from center":4357.7517138999,"Total Restaurants":null},{"level_0":54,"index":54,"Address":"61-41 71st St, Flushing, NY 11379","Latitude":40.7203302695,"Longitude":-73.8861245253,"X":594074.3749542851,"Y":4508308.4157226449,"Distance from center":4058.3247775403,"Total Restaurants":null},{"level_0":53,"index":53,"Address":"68-01 60th Rd, Flushing, NY 11378","Latitude":40.7203985984,"Longitude":-73.893227482,"X":593474.3749542851,"Y":4508308.4157226449,"Distance from center":3830.1436004408,"Total Restaurants":null},{"level_0":52,"index":52,"Address":"58-29 64th St, Flushing, NY 11378","Latitude":40.7204664904,"Longitude":-73.900330463,"X":592874.3749542851,"Y":4508308.4157226449,"Distance from center":3686.4617182331,"Total Restaurants":null},{"level_0":51,"index":51,"Address":"59-24 Grand Ave, Flushing, NY 11378","Latitude":40.7205339455,"Longitude":-73.9074334682,"X":592274.3749542851,"Y":4508308.4157226449,"Distance from center":3637.3066958943,"Total Restaurants":null},{"level_0":50,"index":50,"Address":"55-15 Grand Ave, Flushing, NY 11378","Latitude":40.7206009635,"Longitude":-73.9145364974,"X":591674.3749542851,"Y":4508308.4157226449,"Distance from center":3686.4617182331,"Total Restaurants":null},{"level_0":49,"index":49,"Address":"6 48th St, Maspeth, NY 11378","Latitude":40.7206675446,"Longitude":-73.9216395503,"X":591074.3749542851,"Y":4508308.4157226449,"Distance from center":3830.1436004408,"Total Restaurants":null},{"level_0":48,"index":48,"Address":"287 Maspeth Ave, Brooklyn, NY 11211","Latitude":40.7207336887,"Longitude":-73.928742627,"X":590474.3749542851,"Y":4508308.4157226449,"Distance from center":4058.3247775403,"Total Restaurants":null},{"level_0":47,"index":47,"Address":"22 Vandervoort Ave, Brooklyn, NY 11211","Latitude":40.7207993958,"Longitude":-73.9358457271,"X":589874.3749542851,"Y":4508308.4157226449,"Distance from center":4357.7517138999,"Total Restaurants":null},{"level_0":46,"index":46,"Address":"546 Meeker Ave, Brooklyn, NY 11222","Latitude":40.7208646659,"Longitude":-73.9429488506,"X":589274.3749542851,"Y":4508308.4157226449,"Distance from center":4714.8700936503,"Total Restaurants":null},{"level_0":45,"index":45,"Address":"333 Driggs Ave, Brooklyn, NY 11222","Latitude":40.720929499,"Longitude":-73.9500519973,"X":588674.3749542851,"Y":4508308.4157226449,"Distance from center":5117.6166327694,"Total Restaurants":null},{"level_0":44,"index":44,"Address":"118 N 11th St, Brooklyn, NY 11249","Latitude":40.7209938951,"Longitude":-73.9571551671,"X":588074.3749542851,"Y":4508308.4157226449,"Distance from center":5556.0777532354,"Total Restaurants":null},{"level_0":76,"index":76,"Address":"Yellowstone Bl\/69 Av, Queens, NY 11375","Latitude":40.7246267441,"Longitude":-73.8469779354,"X":597374.3749542851,"Y":4508828.0309649147,"Distance from center":5977.4576535517,"Total Restaurants":null},{"level_0":75,"index":75,"Address":"102-1 67th Rd, Queens, NY 11375","Latitude":40.7246974879,"Longitude":-73.8540812531,"X":596774.3749542851,"Y":4508828.0309649147,"Distance from center":5474.4862772687,"Total Restaurants":null},{"level_0":74,"index":74,"Address":"631-69 Alderton St, Flushing, NY 11374","Latitude":40.7247677947,"Longitude":-73.8611845959,"X":596174.3749542851,"Y":4508828.0309649147,"Distance from center":4992.9950931283,"Total Restaurants":null},{"level_0":73,"index":73,"Address":"87-18 63rd Ave, Flushing, NY 11374","Latitude":40.7248376645,"Longitude":-73.8682879638,"X":595574.3749542851,"Y":4508828.0309649147,"Distance from center":4539.8237851268,"Total Restaurants":null},{"level_0":72,"index":72,"Address":"36 61st Dr, Queens, NY 11379","Latitude":40.7249070973,"Longitude":-73.8753913564,"X":594974.3749542851,"Y":4508828.0309649147,"Distance from center":4124.3181254607,"Total Restaurants":null},{"level_0":71,"index":71,"Address":"6005 77th Pl, Middle Village, NY 11379","Latitude":40.724976093,"Longitude":-73.8824947738,"X":594374.3749542851,"Y":4508828.0309649147,"Distance from center":3758.9892258429,"Total Restaurants":null},{"level_0":70,"index":70,"Address":"71-17 Caldwell Ave, Queens, NY 11378","Latitude":40.7250446517,"Longitude":-73.8895982157,"X":593774.3749542851,"Y":4508828.0309649147,"Distance from center":3459.7687784017,"Total Restaurants":null},{"level_0":69,"index":69,"Address":"Grand Av\/Queens Midtown Expy, Queens, NY 11378","Latitude":40.7251127734,"Longitude":-73.896701682,"X":593174.3749542851,"Y":4508828.0309649147,"Distance from center":3244.9961479181,"Total Restaurants":null},{"level_0":68,"index":68,"Address":"61-15 56th Ave, Flushing, NY 11378","Latitude":40.725180458,"Longitude":-73.9038051725,"X":592574.3749542851,"Y":4508828.0309649147,"Distance from center":3132.0919526737,"Total Restaurants":null},{"level_0":67,"index":67,"Address":"58-75 Maurice Ave, Queens, NY 11378","Latitude":40.7252477056,"Longitude":-73.910908687,"X":591974.3749542851,"Y":4508828.0309649147,"Distance from center":3132.0919526737,"Total Restaurants":null},{"level_0":66,"index":66,"Address":"1 Railroad Pl, Maspeth, NY 11378","Latitude":40.7253145162,"Longitude":-73.9180122255,"X":591374.3749542851,"Y":4508828.0309649147,"Distance from center":3244.9961479181,"Total Restaurants":null},{"level_0":65,"index":65,"Address":"46-06 57th Ave, Queens, NY 11378","Latitude":40.7253808896,"Longitude":-73.9251157877,"X":590774.3749542851,"Y":4508828.0309649147,"Distance from center":3459.7687784017,"Total Restaurants":null},{"level_0":64,"index":64,"Address":"Asgard, 534 Stewart Ave, Brooklyn, NY 11222","Latitude":40.7254468261,"Longitude":-73.9322193735,"X":590174.3749542851,"Y":4508828.0309649147,"Distance from center":3758.9892258429,"Total Restaurants":null},{"level_0":63,"index":63,"Address":"612 Morgan Ave, Brooklyn, NY 11222","Latitude":40.7255123254,"Longitude":-73.9393229827,"X":589574.3749542851,"Y":4508828.0309649147,"Distance from center":4124.3181254607,"Total Restaurants":null},{"level_0":62,"index":62,"Address":"76 Diamond St, Brooklyn, NY 11222","Latitude":40.7255773877,"Longitude":-73.9464266153,"X":588974.3749542851,"Y":4508828.0309649147,"Distance from center":4539.8237851268,"Total Restaurants":null},{"level_0":61,"index":61,"Address":"136 Guernsey St, Brooklyn, NY 11222","Latitude":40.7256420129,"Longitude":-73.9535302709,"X":588374.3749542851,"Y":4508828.0309649147,"Distance from center":4992.9950931283,"Total Restaurants":null},{"level_0":60,"index":60,"Address":"56 Quay St, Brooklyn, NY 11222","Latitude":40.7257062011,"Longitude":-73.9606339495,"X":587774.3749542851,"Y":4508828.0309649147,"Distance from center":5474.4862772687,"Total Restaurants":null},{"level_0":59,"index":59,"Address":"P2GJ+8W New York, NY","Latitude":40.7257699521,"Longitude":-73.967737651,"X":587174.3749542851,"Y":4508828.0309649147,"Distance from center":5977.4576535517,"Total Restaurants":null},{"level_0":95,"index":95,"Address":"110-46 67th Rd, Flushing, NY 11375","Latitude":40.7292712931,"Longitude":-73.8433452494,"X":597674.3749542851,"Y":4509347.6462071855,"Distance from center":5992.4953066316,"Total Restaurants":null},{"level_0":94,"index":94,"Address":"66-10 Yellowstone Blvd, Flushing, NY 11375","Latitude":40.7293422671,"Longitude":-73.8504490519,"X":597074.3749542851,"Y":4509347.6462071855,"Distance from center":5458.0216195983,"Total Restaurants":null},{"level_0":93,"index":93,"Address":"64-39 98th St, Rego Park, NY 11374","Latitude":40.729412804,"Longitude":-73.8575528796,"X":596474.3749542851,"Y":4509347.6462071855,"Distance from center":4938.6232899465,"Total Restaurants":null},{"level_0":92,"index":92,"Address":"63-17 Booth St, Queens, NY 11374","Latitude":40.7294829038,"Longitude":-73.8646567324,"X":595874.3749542851,"Y":4509347.6462071855,"Distance from center":4439.5945760849,"Total Restaurants":null},{"level_0":91,"index":91,"Address":"910 Woodhaven Blvd, Queens, NY 11373","Latitude":40.7295525665,"Longitude":-73.8717606102,"X":595274.3749542851,"Y":4509347.6462071855,"Distance from center":3968.6269665972,"Total Restaurants":null},{"level_0":90,"index":90,"Address":"57-20 84th St, Queens, NY 11373","Latitude":40.7296217921,"Longitude":-73.8788645127,"X":594674.3749542851,"Y":4509347.6462071855,"Distance from center":3536.9478367658,"Total Restaurants":null},{"level_0":89,"index":89,"Address":"74-16 Grand Ave, Flushing, NY 11373","Latitude":40.7296905807,"Longitude":-73.8859684398,"X":594074.3749542851,"Y":4509347.6462071855,"Distance from center":3160.6961258562,"Total Restaurants":null},{"level_0":88,"index":88,"Address":"70-17 53rd Dr, Queens, NY 11378","Latitude":40.7297589321,"Longitude":-73.8930723914,"X":593474.3749542851,"Y":4509347.6462071855,"Distance from center":2861.8176042512,"Total Restaurants":null},{"level_0":87,"index":87,"Address":"5351 65th Pl, Maspeth, NY 11378","Latitude":40.7298268464,"Longitude":-73.9001763673,"X":592874.3749542851,"Y":4509347.6462071855,"Distance from center":2666.4583251951,"Total Restaurants":null},{"level_0":86,"index":86,"Address":"P3HV+X3 New York, NY","Latitude":40.7298943235,"Longitude":-73.9072803673,"X":592274.3749542851,"Y":4509347.6462071855,"Distance from center":2598.0762113538,"Total Restaurants":null},{"level_0":85,"index":85,"Address":"5601 58th St, Flushing, NY 11378","Latitude":40.7299613636,"Longitude":-73.9143843913,"X":591674.3749542851,"Y":4509347.6462071855,"Distance from center":2666.4583251951,"Total Restaurants":null},{"level_0":84,"index":84,"Address":"46-1 54th Dr, Maspeth, NY 11378","Latitude":40.7300279665,"Longitude":-73.9214884392,"X":591074.3749542851,"Y":4509347.6462071855,"Distance from center":2861.8176042512,"Total Restaurants":null},{"level_0":83,"index":83,"Address":"222 Laurel Hill Blvd, Queens, NY 11378","Latitude":40.7300941323,"Longitude":-73.9285925107,"X":590474.3749542851,"Y":4509347.6462071855,"Distance from center":3160.6961258562,"Total Restaurants":null},{"level_0":82,"index":82,"Address":"38-40 Railroad Ave, Long Island City, NY 11101","Latitude":40.730159861,"Longitude":-73.9356966057,"X":589874.3749542851,"Y":4509347.6462071855,"Distance from center":3536.9478367658,"Total Restaurants":null},{"level_0":81,"index":81,"Address":"Parking lot, 379 Kingsland Ave, Brooklyn, NY 11222","Latitude":40.7302251526,"Longitude":-73.9428007242,"X":589274.3749542851,"Y":4509347.6462071855,"Distance from center":3968.6269665972,"Total Restaurants":null},{"level_0":80,"index":80,"Address":"254 Greenpoint Ave # 2, Brooklyn, NY 11222","Latitude":40.730290007,"Longitude":-73.9499048658,"X":588674.3749542851,"Y":4509347.6462071855,"Distance from center":4439.5945760849,"Total Restaurants":null},{"level_0":79,"index":79,"Address":"102 Kent St #4, Brooklyn, NY 11222","Latitude":40.7303544242,"Longitude":-73.9570090305,"X":588074.3749542851,"Y":4509347.6462071855,"Distance from center":4938.6232899465,"Total Restaurants":null},{"level_0":78,"index":78,"Address":"Greenpoint, Brooklyn, NY 11222","Latitude":40.7304184043,"Longitude":-73.9641132181,"X":587474.3749542851,"Y":4509347.6462071855,"Distance from center":5458.0216195983,"Total Restaurants":null},{"level_0":77,"index":77,"Address":"FDR Service Rd\/16 St, New York, NY 10009","Latitude":40.7304819473,"Longitude":-73.9712174284,"X":586874.3749542851,"Y":4509347.6462071855,"Distance from center":5992.4953066316,"Total Restaurants":null},{"level_0":113,"index":113,"Address":"110-17 64th Ave, Flushing, NY 11375","Latitude":40.7339869215,"Longitude":-73.8468163406,"X":597374.3749542851,"Y":4509867.2614494562,"Distance from center":5507.2679252059,"Total Restaurants":null},{"level_0":112,"index":112,"Address":"102-32 63rd Ave, Flushing, NY 11375","Latitude":40.7340576885,"Longitude":-73.8539206533,"X":596774.3749542851,"Y":4509867.2614494562,"Distance from center":4956.8134925576,"Total Restaurants":null},{"level_0":111,"index":111,"Address":"61-2 98th St, Rego Park, NY 11374","Latitude":40.7341280184,"Longitude":-73.8610249912,"X":596174.3749542851,"Y":4509867.2614494562,"Distance from center":4419.275958797,"Total Restaurants":null},{"level_0":110,"index":110,"Address":"9230 59th Ave, Queens, NY 11373","Latitude":40.7341979112,"Longitude":-73.868129354,"X":595574.3749542851,"Y":4509867.2614494562,"Distance from center":3900.0000000002,"Total Restaurants":null},{"level_0":109,"index":109,"Address":"87-18 56th Ave, Queens, NY 11373","Latitude":40.7342673667,"Longitude":-73.8752337417,"X":594974.3749542851,"Y":4509867.2614494562,"Distance from center":3407.3450074804,"Total Restaurants":null},{"level_0":108,"index":108,"Address":"84-46 Grand Ave, Queens, NY 11373","Latitude":40.7343363851,"Longitude":-73.8823381541,"X":594374.3749542851,"Y":4509867.2614494562,"Distance from center":2954.6573405391,"Total Restaurants":null},{"level_0":107,"index":107,"Address":"72-78 Calamus Ave, Flushing, NY 11377","Latitude":40.7344049663,"Longitude":-73.8894425911,"X":593774.3749542851,"Y":4509867.2614494562,"Distance from center":2563.2011235956,"Total Restaurants":null},{"level_0":106,"index":106,"Address":"51-26 69th St, Woodside, NY 11377","Latitude":40.7344731104,"Longitude":-73.8965470524,"X":593174.3749542851,"Y":4509867.2614494562,"Distance from center":2264.9503305816,"Total Restaurants":null},{"level_0":105,"index":105,"Address":"5155 Tyler Ave, Flushing, NY 11377","Latitude":40.7345408172,"Longitude":-73.903651538,"X":592574.3749542851,"Y":4509867.2614494562,"Distance from center":2100.0000000004,"Total Restaurants":null},{"level_0":104,"index":104,"Address":"58 St\/53 Av, Queens, NY 11377","Latitude":40.7346080869,"Longitude":-73.9107560477,"X":591974.3749542851,"Y":4509867.2614494562,"Distance from center":2100.0000000004,"Total Restaurants":null},{"level_0":103,"index":103,"Address":"51-15 48th St, Flushing, NY 11377","Latitude":40.7346749193,"Longitude":-73.9178605812,"X":591374.3749542851,"Y":4509867.2614494562,"Distance from center":2264.9503305816,"Total Restaurants":null},{"level_0":102,"index":102,"Address":"P3MG+V2 New York, NY","Latitude":40.7347413146,"Longitude":-73.9249651386,"X":590774.3749542851,"Y":4509867.2614494562,"Distance from center":2563.2011235956,"Total Restaurants":null},{"level_0":101,"index":101,"Address":"P3M9+W5 New York, NY","Latitude":40.7348072727,"Longitude":-73.9320697195,"X":590174.3749542851,"Y":4509867.2614494562,"Distance from center":2954.6573405391,"Total Restaurants":null},{"level_0":100,"index":100,"Address":"5415 35th St, Long Island City, NY 11101","Latitude":40.7348727935,"Longitude":-73.9391743239,"X":589574.3749542851,"Y":4509867.2614494562,"Distance from center":3407.3450074804,"Total Restaurants":null},{"level_0":99,"index":99,"Address":"317 Greenpoint Ave, Brooklyn, NY 11222","Latitude":40.7349378772,"Longitude":-73.9462789516,"X":588974.3749542851,"Y":4509867.2614494562,"Distance from center":3900.0000000002,"Total Restaurants":null},{"level_0":98,"index":98,"Address":"205 Freeman St, Brooklyn, NY 11222","Latitude":40.7350025236,"Longitude":-73.9533836024,"X":588374.3749542851,"Y":4509867.2614494562,"Distance from center":4419.275958797,"Total Restaurants":null},{"level_0":97,"index":97,"Address":"48 Commercial St, Brooklyn, NY 11222","Latitude":40.7350667328,"Longitude":-73.9604882762,"X":587774.3749542851,"Y":4509867.2614494562,"Distance from center":4956.8134925576,"Total Restaurants":null},{"level_0":96,"index":96,"Address":"P2PJ+3X New York, NY","Latitude":40.7351305048,"Longitude":-73.9675929728,"X":587174.3749542851,"Y":4509867.2614494562,"Distance from center":5507.2679252059,"Total Restaurants":null},{"level_0":132,"index":132,"Address":"P5Q4+FP New York, NY","Latitude":40.738631451,"Longitude":-73.8431831191,"X":597674.3749542851,"Y":4510386.876691727,"Distance from center":5620.4981985586,"Total Restaurants":null},{"level_0":131,"index":131,"Address":"109-28 Saultell Ave, Flushing, NY 11368","Latitude":40.7387024482,"Longitude":-73.8502879168,"X":597074.3749542851,"Y":4510386.876691727,"Distance from center":5046.7811523783,"Total Restaurants":null},{"level_0":130,"index":130,"Address":"57-27 Xenia St, Queens, NY 11368","Latitude":40.7387730083,"Longitude":-73.8573927398,"X":596474.3749542851,"Y":4510386.876691727,"Distance from center":4479.9553569205,"Total Restaurants":null},{"level_0":129,"index":129,"Address":"97-03 55th Ave, Flushing, NY 11368","Latitude":40.7388431311,"Longitude":-73.8644975878,"X":595874.3749542851,"Y":4510386.876691727,"Distance from center":3923.0090491867,"Total Restaurants":null},{"level_0":128,"index":128,"Address":"90-57 53rd Ave, Queens, NY 11373","Latitude":40.7389128167,"Longitude":-73.8716024608,"X":595274.3749542851,"Y":4510386.876691727,"Distance from center":3380.8283008755,"Total Restaurants":null},{"level_0":127,"index":127,"Address":"35 Corona Ave., Queens, NY 11373","Latitude":40.738982065,"Longitude":-73.8787073586,"X":594674.3749542851,"Y":4510386.876691727,"Distance from center":2861.817604251,"Total Restaurants":null},{"level_0":126,"index":126,"Address":"97-17 Albion Ave, Queens, NY 11373","Latitude":40.7390508761,"Longitude":-73.885812281,"X":594074.3749542851,"Y":4510386.876691727,"Distance from center":2381.1761799583,"Total Restaurants":null},{"level_0":125,"index":125,"Address":"70-31 47th Ave, Woodside, NY 11377","Latitude":40.73911925,"Longitude":-73.8929172279,"X":593474.3749542851,"Y":4510386.876691727,"Distance from center":1967.2315572908,"Total Restaurants":null},{"level_0":124,"index":124,"Address":"65-24 Laurel Hill Blvd, Queens, NY 11377","Latitude":40.7391871866,"Longitude":-73.900022199,"X":592874.3749542851,"Y":4510386.876691727,"Distance from center":1670.3293088493,"Total Restaurants":null},{"level_0":123,"index":123,"Address":"47-30 59th St, Woodside, NY 11377","Latitude":40.7392546859,"Longitude":-73.9071271944,"X":592274.3749542851,"Y":4510386.876691727,"Distance from center":1558.8457268123,"Total Restaurants":null},{"level_0":122,"index":122,"Address":"P3QP+P8 New York, NY","Latitude":40.739321748,"Longitude":-73.9142322137,"X":591674.3749542851,"Y":4510386.876691727,"Distance from center":1670.3293088493,"Total Restaurants":null},{"level_0":121,"index":121,"Address":"4402 48th Ave, Queens, NY 11377","Latitude":40.7393883728,"Longitude":-73.9213372569,"X":591074.3749542851,"Y":4510386.876691727,"Distance from center":1967.2315572908,"Total Restaurants":null},{"level_0":120,"index":120,"Address":"48-34 38th St, Queens, NY 11101","Latitude":40.7394545603,"Longitude":-73.9284423238,"X":590474.3749542851,"Y":4510386.876691727,"Distance from center":2381.1761799583,"Total Restaurants":null},{"level_0":119,"index":119,"Address":"49-12 31st Pl, Queens, NY 11101","Latitude":40.7395203106,"Longitude":-73.9355474142,"X":589874.3749542851,"Y":4510386.876691727,"Distance from center":2861.817604251,"Total Restaurants":null},{"level_0":118,"index":118,"Address":"51-07 27th St, Long Island City, NY 11101","Latitude":40.7395856235,"Longitude":-73.9426525281,"X":589274.3749542851,"Y":4510386.876691727,"Distance from center":3380.8283008755,"Total Restaurants":null},{"level_0":117,"index":117,"Address":"21-10 Borden Ave, Long Island City, NY 11101","Latitude":40.7396504992,"Longitude":-73.9497576651,"X":588674.3749542851,"Y":4510386.876691727,"Distance from center":3923.0090491867,"Total Restaurants":null},{"level_0":116,"index":116,"Address":"20 54th Ave, Long Island City, NY 11101","Latitude":40.7397149376,"Longitude":-73.9568628252,"X":588074.3749542851,"Y":4510386.876691727,"Distance from center":4479.9553569205,"Total Restaurants":null},{"level_0":115,"index":115,"Address":"P2QP+WC New York, NY","Latitude":40.7397789387,"Longitude":-73.9639680082,"X":587474.3749542851,"Y":4510386.876691727,"Distance from center":5046.7811523783,"Total Restaurants":null},{"level_0":114,"index":114,"Address":"500 E 30th St, New York, NY 10016","Latitude":40.7398425025,"Longitude":-73.971073214,"X":586874.3749542851,"Y":4510386.876691727,"Distance from center":5620.4981985586,"Total Restaurants":null},{"level_0":152,"index":152,"Address":"P5V6+85 New York, NY","Latitude":40.7432758555,"Longitude":-73.8395493871,"X":597974.3749542851,"Y":4510906.4919339977,"Distance from center":5793.9623747484,"Total Restaurants":null},{"level_0":151,"index":151,"Address":"Grand Central Pkwy, Corona, NY 11368","Latitude":40.7433470831,"Longitude":-73.8466546699,"X":597374.3749542851,"Y":4510906.4919339977,"Distance from center":5204.8054718693,"Total Restaurants":null},{"level_0":150,"index":150,"Address":"108-30 52nd Ave, Queens, NY 11368","Latitude":40.7434178734,"Longitude":-73.8537599781,"X":596774.3749542851,"Y":4510906.4919339977,"Distance from center":4618.4412955022,"Total Restaurants":null},{"level_0":149,"index":149,"Address":"102-19 Alstyne Ave, Queens, NY 11368","Latitude":40.7434882264,"Longitude":-73.8608653114,"X":596174.3749542851,"Y":4510906.4919339977,"Distance from center":4036.0872141222,"Total Restaurants":null},{"level_0":148,"index":148,"Address":"46-12 Junction Blvd, Flushing, NY 11368","Latitude":40.743558142,"Longitude":-73.8679706697,"X":595574.3749542851,"Y":4510906.4919339977,"Distance from center":3459.7687784013,"Total Restaurants":null},{"level_0":147,"index":147,"Address":"42-95 Hampton St, Queens, NY 11373","Latitude":40.7436276204,"Longitude":-73.8750760529,"X":594974.3749542851,"Y":4510906.4919339977,"Distance from center":2893.095228298,"Total Restaurants":null},{"level_0":146,"index":146,"Address":"83-03 Britton Ave, Queens, NY 11373","Latitude":40.7436966614,"Longitude":-73.8821814609,"X":594374.3749542851,"Y":4510906.4919339977,"Distance from center":2343.0749027721,"Total Restaurants":null},{"level_0":145,"index":145,"Address":"41-58 76th St, Queens, NY 11373","Latitude":40.7437652652,"Longitude":-73.8892868933,"X":593774.3749542851,"Y":4510906.4919339977,"Distance from center":1824.8287590896,"Total Restaurants":null},{"level_0":144,"index":144,"Address":"41-23 68th St, Queens, NY 11377","Latitude":40.7438334316,"Longitude":-73.8963923502,"X":593174.3749542851,"Y":4510906.4919339977,"Distance from center":1374.7727084869,"Total Restaurants":null},{"level_0":143,"index":143,"Address":"40-29 61st St, Flushing, NY 11377","Latitude":40.7439011607,"Longitude":-73.9034978313,"X":592574.3749542851,"Y":4510906.4919339977,"Distance from center":1081.6653826394,"Total Restaurants":null},{"level_0":142,"index":142,"Address":"41-61 54th St, Flushing, NY 11377","Latitude":40.7439684524,"Longitude":-73.9106033365,"X":591974.3749542851,"Y":4510906.4919339977,"Distance from center":1081.6653826394,"Total Restaurants":null},{"level_0":141,"index":141,"Address":"43-28 Carolyn St, Sunnyside, NY 11104","Latitude":40.7440353068,"Longitude":-73.9177088657,"X":591374.3749542851,"Y":4510906.4919339977,"Distance from center":1374.7727084869,"Total Restaurants":null},{"level_0":140,"index":140,"Address":"39-39 Queens Blvd, Long Island City, NY 11104","Latitude":40.7441017239,"Longitude":-73.9248144186,"X":590774.3749542851,"Y":4510906.4919339977,"Distance from center":1824.8287590896,"Total Restaurants":null},{"level_0":139,"index":139,"Address":"45-07 33rd St, Queens, NY 11101","Latitude":40.7441677036,"Longitude":-73.9319199951,"X":590174.3749542851,"Y":4510906.4919339977,"Distance from center":2343.0749027721,"Total Restaurants":null},{"level_0":138,"index":138,"Address":"28-11 47th Ave, Queens, NY 11101","Latitude":40.744233246,"Longitude":-73.9390255951,"X":589574.3749542851,"Y":4510906.4919339977,"Distance from center":2893.095228298,"Total Restaurants":null},{"level_0":137,"index":137,"Address":"4630 21st St, Long Island City, NY 11101","Latitude":40.744298351,"Longitude":-73.9461312184,"X":588974.3749542851,"Y":4510906.4919339977,"Distance from center":3459.7687784013,"Total Restaurants":null},{"level_0":136,"index":136,"Address":"47-37 Vernon Blvd, Long Island City, NY 11101","Latitude":40.7443630186,"Longitude":-73.9532368649,"X":588374.3749542851,"Y":4510906.4919339977,"Distance from center":4036.0872141222,"Total Restaurants":null},{"level_0":135,"index":135,"Address":"P2VQ+QV New York, NY","Latitude":40.7444272489,"Longitude":-73.9603425344,"X":587774.3749542851,"Y":4510906.4919339977,"Distance from center":4618.4412955022,"Total Restaurants":null},{"level_0":134,"index":134,"Address":"P2VM+Q2 New York, NY","Latitude":40.7444910419,"Longitude":-73.9674482266,"X":587174.3749542851,"Y":4510906.4919339977,"Distance from center":5204.8054718693,"Total Restaurants":null},{"level_0":133,"index":133,"Address":"317 E 34th St 8th floor, New York, NY 10016","Latitude":40.7445543974,"Longitude":-73.9745539416,"X":586574.3749542851,"Y":4510906.4919339977,"Distance from center":5793.9623747484,"Total Restaurants":null},{"level_0":171,"index":171,"Address":"13140 Fowler Ave, Flushing, NY 11355","Latitude":40.747991593,"Longitude":-73.8430209126,"X":597674.3749542851,"Y":4511426.1071762685,"Distance from center":5424.9423960075,"Total Restaurants":null},{"level_0":170,"index":170,"Address":"P4XX+6W New York, NY","Latitude":40.7480626136,"Longitude":-73.8501267059,"X":597074.3749542851,"Y":4511426.1071762685,"Distance from center":4828.0430818293,"Total Restaurants":null},{"level_0":169,"index":169,"Address":"108 St\/44 Av, Queens, NY 11368","Latitude":40.7481331968,"Longitude":-73.8572325246,"X":596474.3749542851,"Y":4511426.1071762685,"Distance from center":4232.0207938998,"Total Restaurants":null},{"level_0":168,"index":168,"Address":"99-36 41st Ave, Flushing, NY 11368","Latitude":40.7482033427,"Longitude":-73.8643383684,"X":595874.3749542851,"Y":4511426.1071762685,"Distance from center":3637.3066958947,"Total Restaurants":null},{"level_0":167,"index":167,"Address":"16 40th Rd, Queens, NY 11373","Latitude":40.7482730511,"Longitude":-73.8714442371,"X":595274.3749542851,"Y":4511426.1071762685,"Distance from center":3044.6674695277,"Total Restaurants":null},{"level_0":166,"index":166,"Address":"87-25 Roosevelt Ave, Jackson Heights, NY 11372","Latitude":40.7483423222,"Longitude":-73.8785501306,"X":594674.3749542851,"Y":4511426.1071762685,"Distance from center":2455.6058315618,"Total Restaurants":null},{"level_0":165,"index":165,"Address":"37-43 80th St, Queens, NY 11372","Latitude":40.7484111559,"Longitude":-73.8856560487,"X":594074.3749542851,"Y":4511426.1071762685,"Distance from center":1873.4993995195,"Total Restaurants":null},{"level_0":164,"index":164,"Address":"37-14 73rd St, Flushing, NY 11372","Latitude":40.7484795522,"Longitude":-73.8927619914,"X":593474.3749542851,"Y":4511426.1071762685,"Distance from center":1307.6696830622,"Total Restaurants":null},{"level_0":163,"index":163,"Address":"37-13 63rd St, Flushing, NY 11377","Latitude":40.7485475111,"Longitude":-73.8998679583,"X":592874.3749542851,"Y":4511426.1071762685,"Distance from center":793.7253933194,"Total Restaurants":null},{"level_0":162,"index":162,"Address":"38-23 56th St, Flushing, NY 11377","Latitude":40.7486150326,"Longitude":-73.9069739495,"X":592274.3749542851,"Y":4511426.1071762685,"Distance from center":519.6152422708,"Total Restaurants":null},{"level_0":161,"index":161,"Address":"39-10 50th St, Queens, NY 11377","Latitude":40.7486821166,"Longitude":-73.9140799646,"X":591674.3749542851,"Y":4511426.1071762685,"Distance from center":793.7253933194,"Total Restaurants":null},{"level_0":160,"index":160,"Address":"3910 43rd St, Queens, NY 11104","Latitude":40.7487487633,"Longitude":-73.9211860036,"X":591074.3749542851,"Y":4511426.1071762685,"Distance from center":1307.6696830622,"Total Restaurants":null},{"level_0":159,"index":159,"Address":"40-36 Honeywell St, Long Island City, NY 11101","Latitude":40.7488149726,"Longitude":-73.9282920664,"X":590474.3749542851,"Y":4511426.1071762685,"Distance from center":1873.4993995195,"Total Restaurants":null},{"level_0":158,"index":158,"Address":"30-12 41st Ave, Long Island City, NY 11101","Latitude":40.7488807444,"Longitude":-73.9353981526,"X":589874.3749542851,"Y":4511426.1071762685,"Distance from center":2455.6058315618,"Total Restaurants":null},{"level_0":157,"index":157,"Address":"43-10 Crescent St, Queens, NY 11101","Latitude":40.7489460788,"Longitude":-73.9425042623,"X":589274.3749542851,"Y":4511426.1071762685,"Distance from center":3044.6674695277,"Total Restaurants":null},{"level_0":156,"index":156,"Address":"44-40 11th St, Long Island City, NY 11101","Latitude":40.7490109758,"Longitude":-73.9496103952,"X":588674.3749542851,"Y":4511426.1071762685,"Distance from center":3637.3066958947,"Total Restaurants":null},{"level_0":155,"index":155,"Address":"4-40 44th Dr, Queens, NY 11101","Latitude":40.7490754354,"Longitude":-73.9567165511,"X":588074.3749542851,"Y":4511426.1071762685,"Distance from center":4232.0207938998,"Total Restaurants":null},{"level_0":154,"index":154,"Address":"P2XP+MF New York, NY","Latitude":40.7491394575,"Longitude":-73.96382273,"X":587474.3749542851,"Y":4511426.1071762685,"Distance from center":4828.0430818293,"Total Restaurants":null},{"level_0":153,"index":153,"Address":"328 E 42nd St, New York, NY 10017","Latitude":40.7492030422,"Longitude":-73.9709289317,"X":586874.3749542851,"Y":4511426.1071762685,"Distance from center":5424.9423960075,"Total Restaurants":null},{"level_0":191,"index":191,"Address":"Meridian Rd, Corona, NY 11368","Latitude":40.752635978,"Longitude":-73.8393866445,"X":597974.3749542851,"Y":4511945.7224185392,"Distance from center":5700.0,"Total Restaurants":null},{"level_0":190,"index":190,"Address":"Q533+3C New York, NY","Latitude":40.752707229,"Longitude":-73.8464929232,"X":597374.3749542851,"Y":4511945.7224185392,"Distance from center":5100.0,"Total Restaurants":null},{"level_0":189,"index":189,"Address":"112-34 39th Ave, Flushing, NY 11368","Latitude":40.7527780425,"Longitude":-73.8535992273,"X":596774.3749542851,"Y":4511945.7224185392,"Distance from center":4500.0,"Total Restaurants":null},{"level_0":188,"index":188,"Address":"107-06 37th Dr, Flushing, NY 11368","Latitude":40.7528484186,"Longitude":-73.8607055565,"X":596174.3749542851,"Y":4511945.7224185392,"Distance from center":3900.0,"Total Restaurants":null},{"level_0":187,"index":187,"Address":"35-44 100th St, Queens, NY 11368","Latitude":40.7529183572,"Longitude":-73.8678119108,"X":595574.3749542851,"Y":4511945.7224185392,"Distance from center":3300.0,"Total Restaurants":null},{"level_0":186,"index":186,"Address":"9211 35th Ave, Jackson Heights, NY 11372","Latitude":40.7529878584,"Longitude":-73.87491829,"X":594974.3749542851,"Y":4511945.7224185392,"Distance from center":2700.0,"Total Restaurants":null},{"level_0":185,"index":185,"Address":"34-41 85th St, Flushing, NY 11372","Latitude":40.7530569221,"Longitude":-73.8820246939,"X":594374.3749542851,"Y":4511945.7224185392,"Distance from center":2100.0,"Total Restaurants":null},{"level_0":184,"index":184,"Address":"77-10 34th Ave, Flushing, NY 11372","Latitude":40.7531255483,"Longitude":-73.8891311224,"X":593774.3749542851,"Y":4511945.7224185392,"Distance from center":1500.0,"Total Restaurants":null},{"level_0":183,"index":183,"Address":"33-41 70th St, Flushing, NY 11372","Latitude":40.7531937371,"Longitude":-73.8962375752,"X":593174.3749542851,"Y":4511945.7224185392,"Distance from center":900.0,"Total Restaurants":null},{"level_0":182,"index":182,"Address":"33-16 58th St, Flushing, NY 11377","Latitude":40.7532614884,"Longitude":-73.9033440524,"X":592574.3749542851,"Y":4511945.7224185392,"Distance from center":300.0,"Total Restaurants":null},{"level_0":181,"index":181,"Address":"50-53 Newtown Rd, Woodside, NY 11377","Latitude":40.7533288022,"Longitude":-73.9104505536,"X":591974.3749542851,"Y":4511945.7224185392,"Distance from center":300.0,"Total Restaurants":null},{"level_0":180,"index":180,"Address":"43-60 Northern Blvd, Queens, NY 11101","Latitude":40.7533956786,"Longitude":-73.9175570788,"X":591374.3749542851,"Y":4511945.7224185392,"Distance from center":900.0,"Total Restaurants":null},{"level_0":179,"index":179,"Address":"36-20 38th St, Long Island City, NY 11101","Latitude":40.7534621174,"Longitude":-73.9246636278,"X":590774.3749542851,"Y":4511945.7224185392,"Distance from center":1500.0,"Total Restaurants":null},{"level_0":178,"index":178,"Address":"31-06 38th Ave, Long Island City, NY 11101","Latitude":40.7535281188,"Longitude":-73.9317702004,"X":590174.3749542851,"Y":4511945.7224185392,"Distance from center":2100.0,"Total Restaurants":null},{"level_0":177,"index":177,"Address":"40-11A 24th St, Long Island City, NY 11101","Latitude":40.7535936827,"Longitude":-73.9388767965,"X":589574.3749542851,"Y":4511945.7224185392,"Distance from center":2700.0,"Total Restaurants":null},{"level_0":176,"index":176,"Address":"Queensbridge \"Baby\" Park, 41st Rd &, 12th St, Long Island City, NY 11101","Latitude":40.7536588091,"Longitude":-73.9459834159,"X":588974.3749542851,"Y":4511945.7224185392,"Distance from center":3300.0,"Total Restaurants":null},{"level_0":175,"index":175,"Address":"43-82 Vernon Blvd, Long Island City, NY 11101","Latitude":40.753723498,"Longitude":-73.9530900584,"X":588374.3749542851,"Y":4511945.7224185392,"Distance from center":3900.0,"Total Restaurants":null},{"level_0":174,"index":174,"Address":"S Loop Rd, W Loop Rd, New York, NY 10044","Latitude":40.7537877494,"Longitude":-73.960196724,"X":587774.3749542851,"Y":4511945.7224185392,"Distance from center":4500.0,"Total Restaurants":null},{"level_0":173,"index":173,"Address":"337 E 49th St, New York, NY 10017","Latitude":40.7538515632,"Longitude":-73.9673034124,"X":587174.3749542851,"Y":4511945.7224185392,"Distance from center":5100.0,"Total Restaurants":null},{"level_0":172,"index":172,"Address":"470 Lexington Ave, New York, NY 10170","Latitude":40.7539149396,"Longitude":-73.9744101235,"X":586574.3749542851,"Y":4511945.7224185392,"Distance from center":5700.0,"Total Restaurants":null},{"level_0":210,"index":210,"Address":"126-71 Willets Point Blvd, Flushing, NY 11368","Latitude":40.7573517194,"Longitude":-73.8428586297,"X":597674.3749542851,"Y":4512465.33766081,"Distance from center":5424.9423960075,"Total Restaurants":null},{"level_0":209,"index":209,"Address":"Q542+X2 New York, NY","Latitude":40.7574227633,"Longitude":-73.8499654193,"X":597074.3749542851,"Y":4512465.33766081,"Distance from center":4828.0430818293,"Total Restaurants":null},{"level_0":208,"index":208,"Address":"33-19 112th St, Flushing, NY 11368","Latitude":40.7574933696,"Longitude":-73.8570722341,"X":596474.3749542851,"Y":4512465.33766081,"Distance from center":4232.0207938998,"Total Restaurants":null},{"level_0":207,"index":207,"Address":"104-14 Northern Blvd, Flushing, NY 11368","Latitude":40.7575635385,"Longitude":-73.864179074,"X":595874.3749542851,"Y":4512465.33766081,"Distance from center":3637.3066958947,"Total Restaurants":null},{"level_0":206,"index":206,"Address":"32-43 97th St, Flushing, NY 11369","Latitude":40.7576332698,"Longitude":-73.871285939,"X":595274.3749542851,"Y":4512465.33766081,"Distance from center":3044.6674695277,"Total Restaurants":null},{"level_0":205,"index":205,"Address":"89-02 32nd Ave, Queens, NY 11369","Latitude":40.7577025636,"Longitude":-73.8783928287,"X":594674.3749542851,"Y":4512465.33766081,"Distance from center":2455.6058315618,"Total Restaurants":null},{"level_0":204,"index":204,"Address":"31-47 82nd St, Flushing, NY 11370","Latitude":40.7577714199,"Longitude":-73.885499743,"X":594074.3749542851,"Y":4512465.33766081,"Distance from center":1873.4993995195,"Total Restaurants":null},{"level_0":203,"index":203,"Address":"31-20 75th St, Flushing, NY 11370","Latitude":40.7578398387,"Longitude":-73.8926066819,"X":593474.3749542851,"Y":4512465.33766081,"Distance from center":1307.6696830622,"Total Restaurants":null},{"level_0":202,"index":202,"Address":"31-02 68th St, Flushing, NY 11377","Latitude":40.7579078199,"Longitude":-73.8997136451,"X":592874.3749542851,"Y":4512465.33766081,"Distance from center":793.7253933194,"Total Restaurants":null},{"level_0":201,"index":201,"Address":"30-51 Hobart St, Woodside, NY 11377","Latitude":40.7579753635,"Longitude":-73.9068206325,"X":592274.3749542851,"Y":4512465.33766081,"Distance from center":519.6152422708,"Total Restaurants":null},{"level_0":200,"index":200,"Address":"31-51 45th St, Queens, NY 11103","Latitude":40.7580424696,"Longitude":-73.9139276439,"X":591674.3749542851,"Y":4512465.33766081,"Distance from center":793.7253933194,"Total Restaurants":null},{"level_0":199,"index":199,"Address":"32-54 38th St, Queens, NY 11103","Latitude":40.7581091382,"Longitude":-73.9210346792,"X":591074.3749542851,"Y":4512465.33766081,"Distance from center":1307.6696830622,"Total Restaurants":null},{"level_0":198,"index":198,"Address":"31-09 35th Ave, Queens, NY 11106","Latitude":40.7581753692,"Longitude":-73.9281417382,"X":590474.3749542851,"Y":4512465.33766081,"Distance from center":1873.4993995195,"Total Restaurants":null},{"level_0":197,"index":197,"Address":"36-23 23rd St, Long Island City, NY 11106","Latitude":40.7582411626,"Longitude":-73.9352488208,"X":589874.3749542851,"Y":4512465.33766081,"Distance from center":2455.6058315618,"Total Restaurants":null},{"level_0":196,"index":196,"Address":"1006 38th Ave, Long Island City, NY 11101","Latitude":40.7583065184,"Longitude":-73.9423559268,"X":589274.3749542851,"Y":4512465.33766081,"Distance from center":3044.6674695277,"Total Restaurants":null},{"level_0":195,"index":195,"Address":"Q352+86 New York, NY","Latitude":40.7583714367,"Longitude":-73.949463056,"X":588674.3749542851,"Y":4512465.33766081,"Distance from center":3637.3066958947,"Total Restaurants":null},{"level_0":194,"index":194,"Address":"43 Ed Koch Queensboro Bridge Path, New York, NY 10044","Latitude":40.7584359174,"Longitude":-73.9565702083,"X":588074.3749542851,"Y":4512465.33766081,"Distance from center":4232.0207938998,"Total Restaurants":null},{"level_0":193,"index":193,"Address":"348 E 57th St, New York, NY 10022","Latitude":40.7584999606,"Longitude":-73.9636773836,"X":587474.3749542851,"Y":4512465.33766081,"Distance from center":4828.0430818293,"Total Restaurants":null},{"level_0":192,"index":192,"Address":"135 E 53rd St, New York, NY 10022","Latitude":40.7585635661,"Longitude":-73.9707845816,"X":586874.3749542851,"Y":4512465.33766081,"Distance from center":5424.9423960075,"Total Restaurants":null},{"level_0":230,"index":230,"Address":"I-678, Corona, NY 11368","Latitude":40.7619960847,"Longitude":-73.8392238254,"X":597974.3749542851,"Y":4512984.9529030807,"Distance from center":5793.9623747484,"Total Restaurants":null},{"level_0":229,"index":229,"Address":"Q563+RF New York, NY","Latitude":40.7620673591,"Longitude":-73.8463311005,"X":597374.3749542851,"Y":4512984.9529030807,"Distance from center":5204.8054718693,"Total Restaurants":null},{"level_0":228,"index":228,"Address":"Q46W+VJ New York, NY","Latitude":40.7621381958,"Longitude":-73.8534384009,"X":596774.3749542851,"Y":4512984.9529030807,"Distance from center":4618.4412955022,"Total Restaurants":null},{"level_0":227,"index":227,"Address":"109-23 Ditmars Blvd, Flushing, NY 11369","Latitude":40.762208595,"Longitude":-73.8605457266,"X":596174.3749542851,"Y":4512984.9529030807,"Distance from center":4036.0872141222,"Total Restaurants":null},{"level_0":226,"index":226,"Address":"27-40 McIntosh St, Flushing, NY 11369","Latitude":40.7622785566,"Longitude":-73.8676530773,"X":595574.3749542851,"Y":4512984.9529030807,"Distance from center":3459.7687784013,"Total Restaurants":null},{"level_0":225,"index":225,"Address":"26-17 94th St, Flushing, NY 11369","Latitude":40.7623480806,"Longitude":-73.8747604529,"X":594974.3749542851,"Y":4512984.9529030807,"Distance from center":2893.095228298,"Total Restaurants":null},{"level_0":224,"index":224,"Address":"25-37 87th St, Flushing, NY 11369","Latitude":40.762417167,"Longitude":-73.8818678532,"X":594374.3749542851,"Y":4512984.9529030807,"Distance from center":2343.0749027721,"Total Restaurants":null},{"level_0":223,"index":223,"Address":"9053 25th Ave, East Elmhurst, NY 11369","Latitude":40.7624858157,"Longitude":-73.8889752782,"X":593774.3749542851,"Y":4512984.9529030807,"Distance from center":1824.8287590896,"Total Restaurants":null},{"level_0":222,"index":222,"Address":"Q473+2H New York, NY","Latitude":40.7625540269,"Longitude":-73.8960827275,"X":593174.3749542851,"Y":4512984.9529030807,"Distance from center":1374.7727084869,"Total Restaurants":null},{"level_0":221,"index":221,"Address":"60-10 Berkey Ave, Woodside, NY 11377","Latitude":40.7626218004,"Longitude":-73.9031902011,"X":592574.3749542851,"Y":4512984.9529030807,"Distance from center":1081.6653826394,"Total Restaurants":null},{"level_0":220,"index":220,"Address":"28-33 45th St, Long Island City, NY 11103","Latitude":40.7626891364,"Longitude":-73.9102976989,"X":591974.3749542851,"Y":4512984.9529030807,"Distance from center":1081.6653826394,"Total Restaurants":null},{"level_0":219,"index":219,"Address":"30-66 38th St, Long Island City, NY 11103","Latitude":40.7627560347,"Longitude":-73.9174052206,"X":591374.3749542851,"Y":4512984.9529030807,"Distance from center":1374.7727084869,"Total Restaurants":null},{"level_0":218,"index":218,"Address":"31 - 57 31st St, Queens, NY 11106","Latitude":40.7628224953,"Longitude":-73.9245127661,"X":590774.3749542851,"Y":4512984.9529030807,"Distance from center":1824.8287590896,"Total Restaurants":null},{"level_0":217,"index":217,"Address":"22-36 33rd Rd, Queens, NY 11106","Latitude":40.7628885184,"Longitude":-73.9316203352,"X":590174.3749542851,"Y":4512984.9529030807,"Distance from center":2343.0749027721,"Total Restaurants":null},{"level_0":216,"index":216,"Address":"3459 11th St, Queens, NY 11106","Latitude":40.7629541038,"Longitude":-73.9387279278,"X":589574.3749542851,"Y":4512984.9529030807,"Distance from center":2893.095228298,"Total Restaurants":null},{"level_0":215,"index":215,"Address":"Q373+6M New York, NY","Latitude":40.7630192515,"Longitude":-73.9458355438,"X":588974.3749542851,"Y":4512984.9529030807,"Distance from center":3459.7687784013,"Total Restaurants":null},{"level_0":214,"index":214,"Address":"1240 York Ave, New York, NY 10065","Latitude":40.7630839617,"Longitude":-73.9529431829,"X":588374.3749542851,"Y":4512984.9529030807,"Distance from center":4036.0872141222,"Total Restaurants":null},{"level_0":213,"index":213,"Address":"337 E 64th St, New York, NY 10065","Latitude":40.7631482341,"Longitude":-73.9600508451,"X":587774.3749542851,"Y":4512984.9529030807,"Distance from center":4618.4412955022,"Total Restaurants":null},{"level_0":212,"index":212,"Address":"773 Lexington Ave, New York, NY 10065","Latitude":40.763212069,"Longitude":-73.9671585301,"X":587174.3749542851,"Y":4512984.9529030807,"Distance from center":5204.8054718693,"Total Restaurants":null},{"level_0":211,"index":211,"Address":"742 5th Ave, New York, NY 10019","Latitude":40.7632754661,"Longitude":-73.9742662378,"X":586574.3749542851,"Y":4512984.9529030807,"Distance from center":5793.9623747484,"Total Restaurants":null},{"level_0":249,"index":249,"Address":"3130 College Point Blvd, Queens, NY 11354","Latitude":40.7667118299,"Longitude":-73.8426962706,"X":597674.3749542851,"Y":4513504.5681453515,"Distance from center":5620.4981985586,"Total Restaurants":null},{"level_0":248,"index":248,"Address":"Q582+P3 New York, NY","Latitude":40.7667828971,"Longitude":-73.8498040568,"X":597074.3749542851,"Y":4513504.5681453515,"Distance from center":5046.7811523783,"Total Restaurants":null},{"level_0":247,"index":247,"Address":"Q48V+P6 New York, NY","Latitude":40.7668535267,"Longitude":-73.8569118683,"X":596474.3749542851,"Y":4513504.5681453515,"Distance from center":4479.9553569205,"Total Restaurants":null},{"level_0":246,"index":246,"Address":"105-33 Ditmars Blvd, Flushing, NY 11369","Latitude":40.7669237186,"Longitude":-73.8640197048,"X":595874.3749542851,"Y":4513504.5681453515,"Distance from center":3923.0090491867,"Total Restaurants":null},{"level_0":245,"index":245,"Address":"23-55 99th St, Flushing, NY 11369","Latitude":40.7669934728,"Longitude":-73.8711275664,"X":595274.3749542851,"Y":4513504.5681453515,"Distance from center":3380.8283008755,"Total Restaurants":null},{"level_0":244,"index":244,"Address":"23-30 92nd St, Flushing, NY 11369","Latitude":40.7670627893,"Longitude":-73.8782354528,"X":594674.3749542851,"Y":4513504.5681453515,"Distance from center":2861.817604251,"Total Restaurants":null},{"level_0":243,"index":243,"Address":"Planeview Park, Ditmars Blvd, East Elmhurst, NY 11369","Latitude":40.7671316682,"Longitude":-73.8853433639,"X":594074.3749542851,"Y":4513504.5681453515,"Distance from center":2381.1761799583,"Total Restaurants":null},{"level_0":242,"index":242,"Address":"22-52 77th St, Flushing, NY 11370","Latitude":40.7672001094,"Longitude":-73.8924512994,"X":593474.3749542851,"Y":4513504.5681453515,"Distance from center":1967.2315572908,"Total Restaurants":null},{"level_0":241,"index":241,"Address":"69-25 Astoria Blvd S, Flushing, NY 11370","Latitude":40.7672681129,"Longitude":-73.8995592593,"X":592874.3749542851,"Y":4513504.5681453515,"Distance from center":1670.3293088493,"Total Restaurants":null},{"level_0":240,"index":240,"Address":"24-27 45th St, Long Island City, NY 11103","Latitude":40.7673356788,"Longitude":-73.9066672435,"X":592274.3749542851,"Y":4513504.5681453515,"Distance from center":1558.8457268123,"Total Restaurants":null},{"level_0":239,"index":239,"Address":"25-47 37th St, Long Island City, NY 11103","Latitude":40.7674028069,"Longitude":-73.9137752516,"X":591674.3749542851,"Y":4513504.5681453515,"Distance from center":1670.3293088493,"Total Restaurants":null},{"level_0":238,"index":238,"Address":"2835 31st St, Queens, NY 11102","Latitude":40.7674694973,"Longitude":-73.9208832837,"X":591074.3749542851,"Y":4513504.5681453515,"Distance from center":1967.2315572908,"Total Restaurants":null},{"level_0":237,"index":237,"Address":"30-72 23rd St, Queens, NY 11102","Latitude":40.76753575,"Longitude":-73.9279913394,"X":590474.3749542851,"Y":4513504.5681453515,"Distance from center":2381.1761799583,"Total Restaurants":null},{"level_0":236,"index":236,"Address":"11-15 Broadway, Queens, NY 11106","Latitude":40.7676015651,"Longitude":-73.9350994188,"X":589874.3749542851,"Y":4513504.5681453515,"Distance from center":2861.817604251,"Total Restaurants":null},{"level_0":235,"index":235,"Address":"888 Main St, New York, NY 10044","Latitude":40.7676669424,"Longitude":-73.9422075216,"X":589274.3749542851,"Y":4513504.5681453515,"Distance from center":3380.8283008755,"Total Restaurants":null},{"level_0":234,"index":234,"Address":"John Finley Walk, John Finley Walk, New York, NY 10021","Latitude":40.767731882,"Longitude":-73.9493156476,"X":588674.3749542851,"Y":4513504.5681453515,"Distance from center":3923.0090491867,"Total Restaurants":null},{"level_0":233,"index":233,"Address":"360 E 72nd St #1A, New York, NY 10021","Latitude":40.7677963839,"Longitude":-73.9564237967,"X":588074.3749542851,"Y":4513504.5681453515,"Distance from center":4479.9553569205,"Total Restaurants":null},{"level_0":232,"index":232,"Address":"925 Lexington Ave, New York, NY 10065","Latitude":40.767860448,"Longitude":-73.9635319688,"X":587474.3749542851,"Y":4513504.5681453515,"Distance from center":5046.7811523783,"Total Restaurants":null},{"level_0":231,"index":231,"Address":"838B 5th Ave, New York, NY 10065","Latitude":40.7679240744,"Longitude":-73.9706401637,"X":586874.3749542851,"Y":4513504.5681453515,"Distance from center":5620.4981985586,"Total Restaurants":null},{"level_0":267,"index":267,"Address":"29-05 122nd St, Flushing, NY 11354","Latitude":40.7714274734,"Longitude":-73.8461692016,"X":597374.3749542851,"Y":4514024.1833876213,"Distance from center":5507.2679252055,"Total Restaurants":null},{"level_0":266,"index":266,"Address":"Q4CW+HM New York, NY","Latitude":40.7714983334,"Longitude":-73.8532774989,"X":596774.3749542851,"Y":4514024.1833876213,"Distance from center":4956.8134925573,"Total Restaurants":null},{"level_0":265,"index":265,"Address":"Q4CQ+JR New York, NY","Latitude":40.7715687557,"Longitude":-73.8603858215,"X":596174.3749542851,"Y":4514024.1833876213,"Distance from center":4419.2759587966,"Total Restaurants":null},{"level_0":264,"index":264,"Address":"LaGuardia Rd\/new Rd to Terminal B, Queens, NY 11371","Latitude":40.7716387403,"Longitude":-73.8674941691,"X":595574.3749542851,"Y":4514024.1833876213,"Distance from center":3899.9999999997,"Total Restaurants":null},{"level_0":263,"index":263,"Address":"Grand Central Pkwy, East Elmhurst, NY 11369","Latitude":40.7717082871,"Longitude":-73.8746025416,"X":594974.3749542851,"Y":4514024.1833876213,"Distance from center":3407.3450074798,"Total Restaurants":null},{"level_0":262,"index":262,"Address":"Q4C9+P8 New York, NY","Latitude":40.7717773961,"Longitude":-73.8817109388,"X":594374.3749542851,"Y":4514024.1833876213,"Distance from center":2954.6573405384,"Total Restaurants":null},{"level_0":261,"index":261,"Address":"19-48 81st St, Flushing, NY 11370","Latitude":40.7718460674,"Longitude":-73.8888193607,"X":593774.3749542851,"Y":4514024.1833876213,"Distance from center":2563.2011235948,"Total Restaurants":null},{"level_0":260,"index":260,"Address":"49-12 20th Ave, Flushing, NY 11370","Latitude":40.771914301,"Longitude":-73.895927807,"X":593174.3749542851,"Y":4514024.1833876213,"Distance from center":2264.9503305807,"Total Restaurants":null},{"level_0":259,"index":259,"Address":"21-53 43rd St, Queens, NY 11105","Latitude":40.7719820968,"Longitude":-73.9030362775,"X":592574.3749542851,"Y":4514024.1833876213,"Distance from center":2099.9999999994,"Total Restaurants":null},{"level_0":258,"index":258,"Address":"36-14 23rd Ave, Queens, NY 11105","Latitude":40.7720494548,"Longitude":-73.9101447722,"X":591974.3749542851,"Y":4514024.1833876213,"Distance from center":2099.9999999994,"Total Restaurants":null},{"level_0":257,"index":257,"Address":"24-40 29th St, Long Island City, NY 11102","Latitude":40.772116375,"Longitude":-73.9172532909,"X":591374.3749542851,"Y":4514024.1833876213,"Distance from center":2264.9503305807,"Total Restaurants":null},{"level_0":256,"index":256,"Address":"25-70 23rd St, Long Island City, NY 11102","Latitude":40.7721828575,"Longitude":-73.9243618334,"X":590774.3749542851,"Y":4514024.1833876213,"Distance from center":2563.2011235948,"Total Restaurants":null},{"level_0":255,"index":255,"Address":"11-11 Main Ave, Long Island City, NY 11102","Latitude":40.7722489022,"Longitude":-73.9314703995,"X":590174.3749542851,"Y":4514024.1833876213,"Distance from center":2954.6573405384,"Total Restaurants":null},{"level_0":254,"index":254,"Address":"Blackwell Island Light, 900 Main St, New York, NY 10044","Latitude":40.7723145092,"Longitude":-73.9385789892,"X":589574.3749542851,"Y":4514024.1833876213,"Distance from center":3407.3450074798,"Total Restaurants":null},{"level_0":253,"index":253,"Address":"605 FDR Dr, New York, NY 10028","Latitude":40.7723796783,"Longitude":-73.9456876022,"X":588974.3749542851,"Y":4514024.1833876213,"Distance from center":3899.9999999997,"Total Restaurants":null},{"level_0":252,"index":252,"Address":"341 E 79th St, New York, NY 10075","Latitude":40.7724444097,"Longitude":-73.9527962384,"X":588374.3749542851,"Y":4514024.1833876213,"Distance from center":4419.2759587966,"Total Restaurants":null},{"level_0":251,"index":251,"Address":"1067 Lexington Ave, New York, NY 10021","Latitude":40.7725087032,"Longitude":-73.9599048976,"X":587774.3749542851,"Y":4514024.1833876213,"Distance from center":4956.8134925573,"Total Restaurants":null},{"level_0":250,"index":250,"Address":"803 Terrace Dr, New York, NY 10021","Latitude":40.772572559,"Longitude":-73.9670135797,"X":587174.3749542851,"Y":4514024.1833876213,"Distance from center":5507.2679252055,"Total Restaurants":null},{"level_0":286,"index":286,"Address":"25-17 126th St, Flushing, NY 11354","Latitude":40.7760719247,"Longitude":-73.8425338352,"X":597674.3749542851,"Y":4514543.7986298921,"Distance from center":5992.4953066312,"Total Restaurants":null},{"level_0":285,"index":285,"Address":"25-52 120th St, Flushing, NY 11354","Latitude":40.7761430152,"Longitude":-73.8496426184,"X":597074.3749542851,"Y":4514543.7986298921,"Distance from center":5458.0216195978,"Total Restaurants":null},{"level_0":284,"index":284,"Address":"Q4GV+F7 New York, NY","Latitude":40.776213668,"Longitude":-73.856751427,"X":596474.3749542851,"Y":4514543.7986298921,"Distance from center":4938.623289946,"Total Restaurants":null},{"level_0":283,"index":283,"Address":"Q4GP+GF New York, NY","Latitude":40.7762838829,"Longitude":-73.8638602607,"X":595874.3749542851,"Y":4514543.7986298921,"Distance from center":4439.5945760843,"Total Restaurants":null},{"level_0":282,"index":282,"Address":"Grand Central Pkwy Lagaurdia Airport - West Food Court, LaGuardia Rd, East Elmhurst, NY 11371","Latitude":40.77635366,"Longitude":-73.8709691194,"X":595274.3749542851,"Y":4514543.7986298921,"Distance from center":3968.6269665966,"Total Restaurants":null},{"level_0":281,"index":281,"Address":"Q4GC+HQ New York, NY","Latitude":40.7764229993,"Longitude":-73.8780780029,"X":594674.3749542851,"Y":4514543.7986298921,"Distance from center":3536.9478367651,"Total Restaurants":null},{"level_0":280,"index":280,"Address":"Q4G7+HW New York, NY","Latitude":40.7764919008,"Longitude":-73.8851869111,"X":594074.3749542851,"Y":4514543.7986298921,"Distance from center":3160.6961258554,"Total Restaurants":null},{"level_0":279,"index":279,"Address":"Q4G5+J3 New York, NY","Latitude":40.7765603645,"Longitude":-73.8922958439,"X":593474.3749542851,"Y":4514543.7986298921,"Distance from center":2861.8176042504,"Total Restaurants":null},{"level_0":278,"index":278,"Address":"19-40 42nd St, Queens, NY 11105","Latitude":40.7766283903,"Longitude":-73.899404801,"X":592874.3749542851,"Y":4514543.7986298921,"Distance from center":2666.4583251942,"Total Restaurants":null},{"level_0":277,"index":277,"Address":"35-1 21st Ave, Queens, NY 11105","Latitude":40.7766959783,"Longitude":-73.9065137823,"X":592274.3749542851,"Y":4514543.7986298921,"Distance from center":2598.0762113528,"Total Restaurants":null},{"level_0":276,"index":276,"Address":"22-36 28th St, Queens, NY 11105","Latitude":40.7767631285,"Longitude":-73.9136227877,"X":591674.3749542851,"Y":4514543.7986298921,"Distance from center":2666.4583251942,"Total Restaurants":null},{"level_0":275,"index":275,"Address":"21-12 23rd Terrace, Queens, NY 11105","Latitude":40.7768298408,"Longitude":-73.9207318169,"X":591074.3749542851,"Y":4514543.7986298921,"Distance from center":2861.8176042504,"Total Restaurants":null},{"level_0":274,"index":274,"Address":"10 Astoria Park S, Astoria, NY 11102","Latitude":40.7768961152,"Longitude":-73.9278408699,"X":590474.3749542851,"Y":4514543.7986298921,"Distance from center":3160.6961258554,"Total Restaurants":null},{"level_0":273,"index":273,"Address":"10 Halletts Point, Queens, NY 11102","Latitude":40.7769619519,"Longitude":-73.9349499465,"X":589874.3749542851,"Y":4514543.7986298921,"Distance from center":3536.9478367651,"Total Restaurants":null},{"level_0":272,"index":272,"Address":"90 John Finley Walk, New York, NY 10028","Latitude":40.7770273506,"Longitude":-73.9420590465,"X":589274.3749542851,"Y":4514543.7986298921,"Distance from center":3968.6269665966,"Total Restaurants":null},{"level_0":271,"index":271,"Address":"1 Av & E 86 St, New York, NY 10028","Latitude":40.7770923116,"Longitude":-73.9491681698,"X":588674.3749542851,"Y":4514543.7986298921,"Distance from center":4439.5945760843,"Total Restaurants":null},{"level_0":270,"index":270,"Address":"158 E 83rd St, New York, NY 10028","Latitude":40.7771568346,"Longitude":-73.9562773163,"X":588074.3749542851,"Y":4514543.7986298921,"Distance from center":4938.623289946,"Total Restaurants":null},{"level_0":269,"index":269,"Address":"985 5th Ave # 4B, New York, NY 10075","Latitude":40.7772209198,"Longitude":-73.9633864856,"X":587474.3749542851,"Y":4514543.7986298921,"Distance from center":5458.0216195978,"Total Restaurants":null},{"level_0":268,"index":268,"Address":"Q2GH+WR New York, NY","Latitude":40.7772845671,"Longitude":-73.9704956778,"X":586874.3749542851,"Y":4514543.7986298921,"Distance from center":5992.4953066312,"Total Restaurants":null},{"level_0":304,"index":304,"Address":"20-28 College Point Blvd, Flushing, NY 11356","Latitude":40.780787572,"Longitude":-73.8460072266,"X":597374.3749542851,"Y":4515063.4138721628,"Distance from center":5977.4576535512,"Total Restaurants":null},{"level_0":303,"index":303,"Address":"Q4JW+8Q New York, NY","Latitude":40.7808584553,"Longitude":-73.8531165213,"X":596774.3749542851,"Y":4515063.4138721628,"Distance from center":5474.4862772682,"Total Restaurants":null},{"level_0":302,"index":302,"Address":"Q4JQ+9W New York, NY","Latitude":40.7809289007,"Longitude":-73.8602258412,"X":596174.3749542851,"Y":4515063.4138721628,"Distance from center":4992.9950931277,"Total Restaurants":null},{"level_0":301,"index":301,"Address":"Q4JM+93 New York, NY","Latitude":40.7809989082,"Longitude":-73.8673351861,"X":595574.3749542851,"Y":4515063.4138721628,"Distance from center":4539.8237851262,"Total Restaurants":null},{"level_0":300,"index":300,"Address":"Q4JG+C6 New York, NY","Latitude":40.7810684778,"Longitude":-73.874444556,"X":594974.3749542851,"Y":4515063.4138721628,"Distance from center":4124.31812546,"Total Restaurants":null},{"level_0":299,"index":299,"Address":"Q4J9+F9 New York, NY","Latitude":40.7811376095,"Longitude":-73.8815539506,"X":594374.3749542851,"Y":4515063.4138721628,"Distance from center":3758.9892258422,"Total Restaurants":null},{"level_0":298,"index":298,"Address":"Q4J6+FG New York, NY","Latitude":40.7812063034,"Longitude":-73.8886633699,"X":593774.3749542851,"Y":4515063.4138721628,"Distance from center":3459.7687784009,"Total Restaurants":null},{"level_0":297,"index":297,"Address":"Q4J3+GM New York, NY","Latitude":40.7812745593,"Longitude":-73.8957728136,"X":593174.3749542851,"Y":4515063.4138721628,"Distance from center":3244.9961479172,"Total Restaurants":null},{"level_0":296,"index":296,"Address":"Luyster Creek, 77-28 19th Ave, Queens, NY 11105","Latitude":40.7813423774,"Longitude":-73.9028822816,"X":592574.3749542851,"Y":4515063.4138721628,"Distance from center":3132.0919526728,"Total Restaurants":null},{"level_0":295,"index":295,"Address":"20-21 26th St, Queens, NY 11105","Latitude":40.7814097575,"Longitude":-73.9099917737,"X":591974.3749542851,"Y":4515063.4138721628,"Distance from center":3132.0919526728,"Total Restaurants":null},{"level_0":294,"index":294,"Address":"19-10 21st Dr, Queens, NY 11105","Latitude":40.7814766997,"Longitude":-73.9171012898,"X":591374.3749542851,"Y":4515063.4138721628,"Distance from center":3244.9961479172,"Total Restaurants":null},{"level_0":293,"index":293,"Address":"Native Plant Garden, 11 Wards Meadow Loop, New York, NY 10035","Latitude":40.781543204,"Longitude":-73.9242108298,"X":590774.3749542851,"Y":4515063.4138721628,"Distance from center":3459.7687784009,"Total Restaurants":null},{"level_0":292,"index":292,"Address":"Q3J9+JF New York, NY","Latitude":40.7816092704,"Longitude":-73.9313203934,"X":590174.3749542851,"Y":4515063.4138721628,"Distance from center":3758.9892258422,"Total Restaurants":null},{"level_0":291,"index":291,"Address":"Q3J6+MJ New York, NY","Latitude":40.7816748989,"Longitude":-73.9384299805,"X":589574.3749542851,"Y":4515063.4138721628,"Distance from center":4124.31812546,"Total Restaurants":null},{"level_0":290,"index":290,"Address":"1806 1st Ave, New York, NY 10128","Latitude":40.7817400894,"Longitude":-73.945539591,"X":588974.3749542851,"Y":4515063.4138721628,"Distance from center":4539.8237851262,"Total Restaurants":null},{"level_0":289,"index":289,"Address":"171 E 90th St, New York, NY 10128","Latitude":40.781804842,"Longitude":-73.9526492247,"X":588374.3749542851,"Y":4515063.4138721628,"Distance from center":4992.9950931277,"Total Restaurants":null},{"level_0":288,"index":288,"Address":"1056 5th Ave, New York, NY 10028","Latitude":40.7818691567,"Longitude":-73.9597588814,"X":587774.3749542851,"Y":4515063.4138721628,"Distance from center":5474.4862772682,"Total Restaurants":null},{"level_0":287,"index":287,"Address":"Q2JM+Q7 New York, NY","Latitude":40.7819330334,"Longitude":-73.9668685611,"X":587174.3749542851,"Y":4515063.4138721628,"Distance from center":5977.4576535512,"Total Restaurants":null},{"level_0":319,"index":319,"Address":"14 Av\/111 St, Queens, NY 11356","Latitude":40.7855737935,"Longitude":-73.8565909103,"X":596474.3749542851,"Y":4515583.0291144336,"Distance from center":5556.0777532354,"Total Restaurants":null},{"level_0":318,"index":318,"Address":"Q4PP+7G New York, NY","Latitude":40.7856440315,"Longitude":-73.8637007416,"X":595874.3749542851,"Y":4515583.0291144336,"Distance from center":5117.6166327694,"Total Restaurants":null},{"level_0":317,"index":317,"Address":"Q4PH+7M New York, NY","Latitude":40.7857138315,"Longitude":-73.8708105979,"X":595274.3749542851,"Y":4515583.0291144336,"Distance from center":4714.8700936503,"Total Restaurants":null},{"level_0":316,"index":316,"Address":"Widow Rd, Flushing, NY 11371","Latitude":40.7857831936,"Longitude":-73.877920479,"X":594674.3749542851,"Y":4515583.0291144336,"Distance from center":4357.7517138999,"Total Restaurants":null},{"level_0":315,"index":315,"Address":"18-31 Hazen St, Bronx, NY 11370","Latitude":40.7858521176,"Longitude":-73.8850303848,"X":594074.3749542851,"Y":4515583.0291144336,"Distance from center":4058.3247775403,"Total Restaurants":null},{"level_0":314,"index":314,"Address":"Q4P5+94 New York, NY","Latitude":40.7859206038,"Longitude":-73.8921403152,"X":593474.3749542851,"Y":4515583.0291144336,"Distance from center":3830.1436004408,"Total Restaurants":null},{"level_0":313,"index":313,"Address":"30-15 11 Ave, Queens, NY 11105","Latitude":40.7859886519,"Longitude":-73.89925027,"X":592874.3749542851,"Y":4515583.0291144336,"Distance from center":3686.4617182331,"Total Restaurants":null},{"level_0":312,"index":312,"Address":"Q3PV+CF New York, NY","Latitude":40.7860562621,"Longitude":-73.9063602489,"X":592274.3749542851,"Y":4515583.0291144336,"Distance from center":3637.3066958943,"Total Restaurants":null},{"level_0":311,"index":311,"Address":"19-10 18 Ave, Queens, NY 11105","Latitude":40.7861234343,"Longitude":-73.913470252,"X":591674.3749542851,"Y":4515583.0291144336,"Distance from center":3686.4617182331,"Total Restaurants":null},{"level_0":310,"index":310,"Address":"145 6 Dr, New York, NY 10035","Latitude":40.7861901685,"Longitude":-73.9205802789,"X":591074.3749542851,"Y":4515583.0291144336,"Distance from center":3830.1436004408,"Total Restaurants":null},{"level_0":309,"index":309,"Address":"120 Hell Gate Cir, New York, NY 10035","Latitude":40.7862564648,"Longitude":-73.9276903297,"X":590474.3749542851,"Y":4515583.0291144336,"Distance from center":4058.3247775403,"Total Restaurants":null},{"level_0":308,"index":308,"Address":"124 Sunken Garden Loop, New York, NY 10035","Latitude":40.786322323,"Longitude":-73.934800404,"X":589874.3749542851,"Y":4515583.0291144336,"Distance from center":4357.7517138999,"Total Restaurants":null},{"level_0":307,"index":307,"Address":"1966 1st Ave, New York, NY 10029","Latitude":40.7863877432,"Longitude":-73.9419105017,"X":589274.3749542851,"Y":4515583.0291144336,"Distance from center":4714.8700936503,"Total Restaurants":null},{"level_0":306,"index":306,"Address":"1760 3rd Ave, New York, NY 10029","Latitude":40.7864527255,"Longitude":-73.9490206227,"X":588674.3749542851,"Y":4515583.0291144336,"Distance from center":5117.6166327694,"Total Restaurants":null},{"level_0":305,"index":305,"Address":"1 E 94th St, New York, NY 10128","Latitude":40.7865172697,"Longitude":-73.9561307669,"X":588074.3749542851,"Y":4515583.0291144336,"Distance from center":5556.0777532354,"Total Restaurants":null},{"level_0":333,"index":333,"Address":"Q4RQ+4X New York, NY","Latitude":40.7902890299,"Longitude":-73.8600657856,"X":596174.3749542851,"Y":4516102.6443567043,"Distance from center":5699.9999999998,"Total Restaurants":null},{"level_0":332,"index":332,"Address":"Q4RM+44 New York, NY","Latitude":40.7903590603,"Longitude":-73.8671761284,"X":595574.3749542851,"Y":4516102.6443567043,"Distance from center":5307.5418038861,"Total Restaurants":null},{"level_0":331,"index":331,"Address":"Q4RG+57 New York, NY","Latitude":40.7904286528,"Longitude":-73.8742864961,"X":594974.3749542851,"Y":4516102.6443567043,"Distance from center":4956.8134925573,"Total Restaurants":null},{"level_0":330,"index":330,"Address":"11 Hazen St, Queens, NY 11370","Latitude":40.7904978072,"Longitude":-73.8813968886,"X":594374.3749542851,"Y":4516102.6443567043,"Distance from center":4657.2524088778,"Total Restaurants":null},{"level_0":329,"index":329,"Address":"Q4R6+6H New York, NY","Latitude":40.7905665236,"Longitude":-73.8885073057,"X":593774.3749542851,"Y":4516102.6443567043,"Distance from center":4419.2759587967,"Total Restaurants":null},{"level_0":328,"index":328,"Address":"Q4R3+7Q New York, NY","Latitude":40.790634802,"Longitude":-73.8956177473,"X":593174.3749542851,"Y":4516102.6443567043,"Distance from center":4253.2340636271,"Total Restaurants":null},{"level_0":327,"index":327,"Address":"Q3RW+7W New York, NY","Latitude":40.7907026423,"Longitude":-73.9027282132,"X":592574.3749542851,"Y":4516102.6443567043,"Distance from center":4167.7331968347,"Total Restaurants":null},{"level_0":326,"index":326,"Address":"Q3RR+83 New York, NY","Latitude":40.7907700445,"Longitude":-73.9098387032,"X":591974.3749542851,"Y":4516102.6443567043,"Distance from center":4167.7331968347,"Total Restaurants":null},{"level_0":325,"index":325,"Address":"8 Cammarata Ave, New York, NY 10035","Latitude":40.7908370087,"Longitude":-73.9169492173,"X":591374.3749542851,"Y":4516102.6443567043,"Distance from center":4253.2340636271,"Total Restaurants":null},{"level_0":324,"index":324,"Address":"Freshwater Meadow, K Rd, New York, NY 10035","Latitude":40.7909035348,"Longitude":-73.9240597551,"X":590774.3749542851,"Y":4516102.6443567043,"Distance from center":4419.2759587967,"Total Restaurants":null},{"level_0":323,"index":323,"Address":"116 Rivers Edge Rd, New York, NY 10035","Latitude":40.7909696229,"Longitude":-73.9311703167,"X":590174.3749542851,"Y":4516102.6443567043,"Distance from center":4657.2524088778,"Total Restaurants":null},{"level_0":322,"index":322,"Address":"2108 1st Ave, New York, NY 10029","Latitude":40.7910352729,"Longitude":-73.9382809018,"X":589574.3749542851,"Y":4516102.6443567043,"Distance from center":4956.8134925573,"Total Restaurants":null},{"level_0":321,"index":321,"Address":"179 E 105th St, New York, NY 10029","Latitude":40.7911004848,"Longitude":-73.9453915102,"X":588974.3749542851,"Y":4516102.6443567043,"Distance from center":5307.5418038861,"Total Restaurants":null},{"level_0":320,"index":320,"Address":"10e E 102nd St, New York, NY 10029","Latitude":40.7911652587,"Longitude":-73.9525021419,"X":588374.3749542851,"Y":4516102.6443567043,"Distance from center":5699.9999999998,"Total Restaurants":null},{"level_0":346,"index":346,"Address":"Q4WP+2H New York, NY","Latitude":40.7950041643,"Longitude":-73.8635411474,"X":595874.3749542851,"Y":4516622.2595989751,"Distance from center":5901.6946718717,"Total Restaurants":null},{"level_0":345,"index":345,"Address":"Q4WH+2P New York, NY","Latitude":40.7950739872,"Longitude":-73.8706520018,"X":595274.3749542851,"Y":4516622.2595989751,"Distance from center":5556.0777532355,"Total Restaurants":null},{"level_0":344,"index":344,"Address":"Q4WC+3V New York, NY","Latitude":40.7951433721,"Longitude":-73.877762881,"X":594674.3749542851,"Y":4516622.2595989751,"Distance from center":5256.4246403805,"Total Restaurants":null},{"level_0":343,"index":343,"Address":"Q4W8+33 New York, NY","Latitude":40.7952123188,"Longitude":-73.884873785,"X":594074.3749542851,"Y":4516622.2595989751,"Distance from center":5010.9879265469,"Total Restaurants":null},{"level_0":342,"index":342,"Address":"Q4W5+46 New York, NY","Latitude":40.7952808274,"Longitude":-73.8919847134,"X":593474.3749542851,"Y":4516622.2595989751,"Distance from center":4828.0430818292,"Total Restaurants":null},{"level_0":341,"index":341,"Address":"Q4W2+49 New York, NY","Latitude":40.7953488979,"Longitude":-73.8990956663,"X":592874.3749542851,"Y":4516622.2595989751,"Distance from center":4714.8700936504,"Total Restaurants":null},{"level_0":340,"index":340,"Address":"Q3WV+5G New York, NY","Latitude":40.7954165302,"Longitude":-73.9062066434,"X":592274.3749542851,"Y":4516622.2595989751,"Distance from center":4676.5371804358,"Total Restaurants":null},{"level_0":339,"index":339,"Address":"BBQ place, Sunken Meadow Loop, New York, NY 11105","Latitude":40.7954837245,"Longitude":-73.9133176446,"X":591674.3749542851,"Y":4516622.2595989751,"Distance from center":4714.8700936504,"Total Restaurants":null},{"level_0":338,"index":338,"Address":"36 Central Rd, New York, NY 10035","Latitude":40.7955504806,"Longitude":-73.9204286697,"X":591074.3749542851,"Y":4516622.2595989751,"Distance from center":4828.0430818292,"Total Restaurants":null},{"level_0":337,"index":337,"Address":"Q3WC+6X New York, NY","Latitude":40.7956167986,"Longitude":-73.9275397186,"X":590474.3749542851,"Y":4516622.2595989751,"Distance from center":5010.9879265469,"Total Restaurants":null},{"level_0":336,"index":336,"Address":"412 E 116th St, New York, NY 10029","Latitude":40.7956826784,"Longitude":-73.9346507911,"X":589874.3749542851,"Y":4516622.2595989751,"Distance from center":5256.4246403805,"Total Restaurants":null},{"level_0":335,"index":335,"Address":"3 Av\/E 112 St, New York, NY 10029","Latitude":40.7957481201,"Longitude":-73.941761887,"X":589274.3749542851,"Y":4516622.2595989751,"Distance from center":5556.0777532355,"Total Restaurants":null},{"level_0":334,"index":334,"Address":"10 E 109th St, New York, NY 10029","Latitude":40.7958131237,"Longitude":-73.9488730063,"X":588674.3749542851,"Y":4516622.2595989751,"Distance from center":5901.6946718717,"Total Restaurants":null},{"level_0":356,"index":356,"Address":"Q4XG+W8 New York, NY","Latitude":40.7997888121,"Longitude":-73.8741283619,"X":594974.3749542851,"Y":4517141.8748412458,"Distance from center":5855.7663887829,"Total Restaurants":null},{"level_0":355,"index":355,"Address":"Q4X9+WG New York, NY","Latitude":40.7998579892,"Longitude":-73.8812397527,"X":594374.3749542851,"Y":4517141.8748412458,"Distance from center":5604.4625076808,"Total Restaurants":null},{"level_0":354,"index":354,"Address":"Q4X6+XM New York, NY","Latitude":40.7999267281,"Longitude":-73.8883511682,"X":593774.3749542851,"Y":4517141.8748412458,"Distance from center":5408.3269131959,"Total Restaurants":null},{"level_0":353,"index":353,"Address":"Q4X3+XR New York, NY","Latitude":40.7999950289,"Longitude":-73.8954626081,"X":593174.3749542851,"Y":4517141.8748412458,"Distance from center":5273.518749374,"Total Restaurants":null},{"level_0":352,"index":352,"Address":"R32W+2X New York, NY","Latitude":40.8000628914,"Longitude":-73.9025740724,"X":592574.3749542851,"Y":4517141.8748412458,"Distance from center":5204.8054718692,"Total Restaurants":null},{"level_0":351,"index":351,"Address":"151 Locust Ave, Bronx, NY 10454","Latitude":40.8001303158,"Longitude":-73.9096855608,"X":591974.3749542851,"Y":4517141.8748412458,"Distance from center":5204.8054718692,"Total Restaurants":null},{"level_0":350,"index":350,"Address":"670 E 132nd St, Bronx, NY 10454","Latitude":40.800197302,"Longitude":-73.9167970732,"X":591374.3749542851,"Y":4517141.8748412458,"Distance from center":5273.518749374,"Total Restaurants":null},{"level_0":349,"index":349,"Address":"25 Bronx Shore Rd, New York, NY 10035","Latitude":40.8002638499,"Longitude":-73.9239086095,"X":590774.3749542851,"Y":4517141.8748412458,"Distance from center":5408.3269131959,"Total Restaurants":null},{"level_0":348,"index":348,"Address":"20 Paladino Ave, New York, NY 10035","Latitude":40.8003299597,"Longitude":-73.9310201694,"X":590174.3749542851,"Y":4517141.8748412458,"Distance from center":5604.4625076808,"Total Restaurants":null},{"level_0":347,"index":347,"Address":"2201 3rd Ave, New York, NY 10035","Latitude":40.8003956312,"Longitude":-73.9381317529,"X":589574.3749542851,"Y":4517141.8748412458,"Distance from center":5855.7663887829,"Total Restaurants":null},{"level_0":363,"index":363,"Address":"1300 Ryawa Ave, Bronx, NY 10474","Latitude":40.8045725042,"Longitude":-73.8847171114,"X":594074.3749542851,"Y":4517661.4900835166,"Distance from center":5992.4953066315,"Total Restaurants":null},{"level_0":362,"index":362,"Address":"R435+V7 New York, NY","Latitude":40.8046410352,"Longitude":-73.8918290385,"X":593474.3749542851,"Y":4517661.4900835166,"Distance from center":5840.3767001796,"Total Restaurants":null},{"level_0":361,"index":361,"Address":"1 Oak Point Ave, Bronx, NY 10474","Latitude":40.8047091281,"Longitude":-73.8989409899,"X":592874.3749542851,"Y":4517661.4900835166,"Distance from center":5747.1732182005,"Total Restaurants":null},{"level_0":360,"index":360,"Address":"881 E 141st St, Bronx, NY 10454","Latitude":40.8047767826,"Longitude":-73.9060529656,"X":592274.3749542851,"Y":4517661.4900835166,"Distance from center":5715.7676649773,"Total Restaurants":null},{"level_0":359,"index":359,"Address":"708 E 138th St, Bronx, NY 10454","Latitude":40.8048439989,"Longitude":-73.9131649654,"X":591674.3749542851,"Y":4517661.4900835166,"Distance from center":5747.1732182005,"Total Restaurants":null},{"level_0":358,"index":358,"Address":"532 E 134th St, Bronx, NY 10454","Latitude":40.8049107769,"Longitude":-73.9202769892,"X":591074.3749542851,"Y":4517661.4900835166,"Distance from center":5840.3767001796,"Total Restaurants":null},{"level_0":357,"index":357,"Address":"55 Willis Ave Bridge Path, Bronx, NY 10454","Latitude":40.8049771167,"Longitude":-73.9273890367,"X":590474.3749542851,"Y":4517661.4900835166,"Distance from center":5992.4953066315,"Total Restaurants":null}]}