{"schema":{"fields":[{"name":"index","type":"integer"},{"name":"index","type":"integer"},{"name":"Address","type":"string"},{"name":"Latitude","type":"number"},{"name":"Longitude","type":"number"},{"name":"X","type":"number"},{"name":"Y","type":"number"},{"name":"Distance from center","type":"number"},{"name":"Total Restaurants","type":"number"}],"primaryKey":["index"],"pandas_version":"0.20.0"},"data":[{"level_0":0,"index":0,"Address":"2227 E 38th St, Vernon, CA 90058","Latitude":34.008490675,"Longitude":-118.2341109156,"X":-3612778.0387249803,"Y":4744020.2828588793,"Distance from center":5992.4953066315,"Total Restaurants":1.0},{"level_0":7,"index":7,"Address":"1680 E 40th Pl, Los Angeles, CA 90011","Latitude":34.0087874383,"Longitude":-118.2433621861,"X":-3613678.0387249803,"Y":4744539.8981011501,"Distance from center":5855.7663887829,"Total Restaurants":2.0},{"level_0":17,"index":17,"Address":"1278 E 41st St, Los Angeles, CA 90011","Latitude":34.0090831218,"Longitude":-118.2526127963,"X":-3614578.0387249803,"Y":4745059.5133434208,"Distance from center":5901.6946718717,"Total Restaurants":2.0},{"level_0":1,"index":1,"Address":"2425 E 30th St Unit G, Vernon, CA 90058","Latitude":34.0105661353,"Longitude":-118.2293818177,"X":-3612178.0387249803,"Y":4744020.2828588793,"Distance from center":5840.3767001796,"Total Restaurants":2.0},{"level_0":8,"index":8,"Address":"2860 S Alameda St, Vernon, CA 90058","Latitude":34.0108632719,"Longitude":-118.2386337923,"X":-3613078.0387249803,"Y":4744539.8981011501,"Distance from center":5604.4625076808,"Total Restaurants":2.0},{"level_0":18,"index":18,"Address":"1539 E Martin Luther King Jr Blvd, Los Angeles, CA 90011","Latitude":34.0111593287,"Longitude":-118.2478851066,"X":-3613978.0387249803,"Y":4745059.5133434208,"Distance from center":5556.0777532355,"Total Restaurants":5.0},{"level_0":30,"index":30,"Address":"3509 S Central Ave, Los Angeles, CA 90011","Latitude":34.0114543058,"Longitude":-118.2571357605,"X":-3614878.0387249803,"Y":4745579.1285856916,"Distance from center":5699.9999999998,"Total Restaurants":2.0},{"level_0":2,"index":2,"Address":"3205 E 27th St, Vernon, CA 90058","Latitude":34.0126415231,"Longitude":-118.2246522359,"X":-3611578.0387249803,"Y":4744020.2828588793,"Distance from center":5747.1732182005,"Total Restaurants":2.0},{"level_0":9,"index":9,"Address":"2087 E 27th St, Vernon, CA 90058","Latitude":34.0129390333,"Longitude":-118.2339049144,"X":-3612478.0387249803,"Y":4744539.8981011501,"Distance from center":5408.3269131959,"Total Restaurants":3.0},{"level_0":19,"index":19,"Address":"2525 Long Beach Ave, Vernon, CA 90058","Latitude":34.0132354635,"Longitude":-118.2431569329,"X":-3613378.0387249803,"Y":4745059.5133434208,"Distance from center":5256.4246403805,"Total Restaurants":4.0},{"level_0":31,"index":31,"Address":"3309 Hooper Ave., Los Angeles, CA 90011","Latitude":34.0135308137,"Longitude":-118.252408291,"X":-3614278.0387249803,"Y":4745579.1285856916,"Distance from center":5307.5418038861,"Total Restaurants":6.0},{"level_0":44,"index":44,"Address":"Jefferson \/ Griffith, Los Angeles, CA 90011","Latitude":34.0138250843,"Longitude":-118.2616589883,"X":-3615178.0387249803,"Y":4746098.7438279623,"Distance from center":5556.0777532354,"Total Restaurants":5.0},{"level_0":59,"index":59,"Address":"3725 Wall St, Los Angeles, CA 90011","Latitude":34.0141182752,"Longitude":-118.2709090244,"X":-3616078.0387249803,"Y":4746618.3590702321,"Distance from center":5977.4576535517,"Total Restaurants":5.0},{"level_0":3,"index":3,"Address":"2572 S Soto St, Vernon, CA 90058","Latitude":34.0147168385,"Longitude":-118.21992217,"X":-3610978.0387249803,"Y":4744020.2828588793,"Distance from center":5715.7676649773,"Total Restaurants":1.0},{"level_0":10,"index":10,"Address":"2500 S Santa Fe Ave, Vernon, CA 90058","Latitude":34.0150147223,"Longitude":-118.2291755525,"X":-3611878.0387249803,"Y":4744539.8981011501,"Distance from center":5273.518749374,"Total Restaurants":2.0},{"level_0":20,"index":20,"Address":"2444 S Alameda St, Los Angeles, CA 90058","Latitude":34.0153115259,"Longitude":-118.2384282751,"X":-3612778.0387249803,"Y":4745059.5133434208,"Distance from center":5010.9879265469,"Total Restaurants":1.0},{"level_0":32,"index":32,"Address":"1433 E Adams Blvd, Los Angeles, CA 90011","Latitude":34.0156072495,"Longitude":-118.2476803375,"X":-3613678.0387249803,"Y":4745579.1285856916,"Distance from center":4956.8134925573,"Total Restaurants":6.0},{"level_0":45,"index":45,"Address":"1028 E 29th St, Los Angeles, CA 90011","Latitude":34.0159018933,"Longitude":-118.2569317392,"X":-3614578.0387249803,"Y":4746098.7438279623,"Distance from center":5117.6166327694,"Total Restaurants":1.0},{"level_0":60,"index":60,"Address":"524 E 33rd St, Los Angeles, CA 90011","Latitude":34.0161954573,"Longitude":-118.2661824798,"X":-3615478.0387249803,"Y":4746618.3590702321,"Distance from center":5474.4862772687,"Total Restaurants":1.0},{"level_0":77,"index":77,"Address":"Broadway \/ 36th, Los Angeles, CA 90007","Latitude":34.0164879417,"Longitude":-118.2754325591,"X":-3616378.0387249803,"Y":4747137.9743125029,"Distance from center":5992.4953066316,"Total Restaurants":3.0},{"level_0":4,"index":4,"Address":"3000 E Washington Blvd, Los Angeles, CA 90023","Latitude":34.0167920813,"Longitude":-118.21519162,"X":-3610378.0387249803,"Y":4744020.2828588793,"Distance from center":5747.1732182005,"Total Restaurants":1.0},{"level_0":11,"index":11,"Address":"2640 E Washington Blvd, Los Angeles, CA 90023","Latitude":34.0170903388,"Longitude":-118.2244457065,"X":-3611278.0387249803,"Y":4744539.8981011501,"Distance from center":5204.8054718692,"Total Restaurants":1.0},{"level_0":21,"index":21,"Address":"1995 E 20th St, Los Angeles, CA 90058","Latitude":34.017387516,"Longitude":-118.2336991333,"X":-3612178.0387249803,"Y":4745059.5133434208,"Distance from center":4828.0430818292,"Total Restaurants":1.0},{"level_0":33,"index":33,"Address":"1700 E 21st St, Vernon, CA 90058","Latitude":34.0176836131,"Longitude":-118.2429518999,"X":-3613078.0387249803,"Y":4745579.1285856916,"Distance from center":4657.2524088778,"Total Restaurants":2.0},{"level_0":46,"index":46,"Address":"1201 E Adams Blvd, Los Angeles, CA 90011","Latitude":34.0179786301,"Longitude":-118.2522040059,"X":-3613978.0387249803,"Y":4746098.7438279623,"Distance from center":4714.8700936503,"Total Restaurants":5.0},{"level_0":61,"index":61,"Address":"748 E 29th St, Los Angeles, CA 90011","Latitude":34.0182725673,"Longitude":-118.2614554511,"X":-3614878.0387249803,"Y":4746618.3590702321,"Distance from center":4992.9950931283,"Total Restaurants":4.0},{"level_0":78,"index":78,"Address":"137 E 33rd St, Los Angeles, CA 90011","Latitude":34.0185654248,"Longitude":-118.270706235,"X":-3615778.0387249803,"Y":4747137.9743125029,"Distance from center":5458.0216195983,"Total Restaurants":4.0},{"level_0":5,"index":5,"Address":"3170 E 11th St, Los Angeles, CA 90023","Latitude":34.0188672516,"Longitude":-118.210460586,"X":-3609778.0387249803,"Y":4744020.2828588793,"Distance from center":5840.3767001796,"Total Restaurants":1.0},{"level_0":12,"index":12,"Address":"2840 E Pico Blvd, Los Angeles, CA 90023","Latitude":34.0191658829,"Longitude":-118.2197153764,"X":-3610678.0387249803,"Y":4744539.8981011501,"Distance from center":5204.8054718692,"Total Restaurants":1.0},{"level_0":22,"index":22,"Address":"2416 E 16th St, Los Angeles, CA 90021","Latitude":34.0194634338,"Longitude":-118.2289695073,"X":-3611578.0387249803,"Y":4745059.5133434208,"Distance from center":4714.8700936504,"Total Restaurants":6.0},{"level_0":34,"index":34,"Address":"1907 E Washington Blvd, Los Angeles, CA 90021","Latitude":34.0197599043,"Longitude":-118.2382229781,"X":-3612478.0387249803,"Y":4745579.1285856916,"Distance from center":4419.2759587967,"Total Restaurants":2.0},{"level_0":47,"index":47,"Address":"1473 E 21st St #1\/2, Los Angeles, CA 90011","Latitude":34.0200552948,"Longitude":-118.2474757885,"X":-3613378.0387249803,"Y":4746098.7438279623,"Distance from center":4357.7517138999,"Total Restaurants":1.0},{"level_0":62,"index":62,"Address":"906 E 25th St, Los Angeles, CA 90011","Latitude":34.0203496052,"Longitude":-118.2567279382,"X":-3614278.0387249803,"Y":4746618.3590702321,"Distance from center":4539.8237851268,"Total Restaurants":5.0},{"level_0":79,"index":79,"Address":"433 E 29th St, Los Angeles, CA 90011","Latitude":34.0206428358,"Longitude":-118.2659794268,"X":-3615178.0387249803,"Y":4747137.9743125029,"Distance from center":4938.6232899465,"Total Restaurants":2.0},{"level_0":96,"index":96,"Address":"245 W 33rd St, Los Angeles, CA 90007","Latitude":34.0209349867,"Longitude":-118.2752302539,"X":-3616078.0387249803,"Y":4747657.5895547736,"Distance from center":5507.2679252059,"Total Restaurants":null},{"level_0":6,"index":6,"Address":"3343 Estrada St, Los Angeles, CA 90023","Latitude":34.0209423493,"Longitude":-118.2057290678,"X":-3609178.0387249803,"Y":4744020.2828588793,"Distance from center":5992.4953066315,"Total Restaurants":4.0},{"level_0":13,"index":13,"Address":"2933 E 11th St, Los Angeles, CA 90023","Latitude":34.0212413544,"Longitude":-118.2149845622,"X":-3610078.0387249803,"Y":4744539.8981011501,"Distance from center":5273.518749374,"Total Restaurants":1.0},{"level_0":23,"index":23,"Address":"1601 Perrino Pl, Los Angeles, CA 90023","Latitude":34.021539279,"Longitude":-118.2242393971,"X":-3610978.0387249803,"Y":4745059.5133434208,"Distance from center":4676.5371804358,"Total Restaurants":1.0},{"level_0":35,"index":35,"Address":"2261 E 15th St, Los Angeles, CA 90021","Latitude":34.0218361232,"Longitude":-118.2334935722,"X":-3611878.0387249803,"Y":4745579.1285856916,"Distance from center":4253.2340636271,"Total Restaurants":1.0},{"level_0":48,"index":48,"Address":"1626 Long Beach Ave, Los Angeles, CA 90021","Latitude":34.0221318871,"Longitude":-118.242747087,"X":-3612778.0387249803,"Y":4746098.7438279623,"Distance from center":4058.3247775403,"Total Restaurants":1.0},{"level_0":63,"index":63,"Address":"2000 S Central Ave, Los Angeles, CA 90011","Latitude":34.0224265709,"Longitude":-118.2519999411,"X":-3613678.0387249803,"Y":4746618.3590702321,"Distance from center":4124.3181254607,"Total Restaurants":9.0},{"level_0":80,"index":80,"Address":"642 E 25th St, Los Angeles, CA 90011","Latitude":34.0227201747,"Longitude":-118.2612521343,"X":-3614578.0387249803,"Y":4747137.9743125029,"Distance from center":4439.5945760849,"Total Restaurants":3.0},{"level_0":97,"index":97,"Address":"2801 S Main St, Los Angeles, CA 90007","Latitude":34.0230126987,"Longitude":-118.2705036662,"X":-3615478.0387249803,"Y":4747657.5895547736,"Distance from center":4956.8134925576,"Total Restaurants":null},{"level_0":114,"index":114,"Address":"3333 S Figueroa St, Los Angeles, CA 90007","Latitude":34.023304143,"Longitude":-118.2797545364,"X":-3616378.0387249803,"Y":4748177.2047970444,"Distance from center":5620.4981985586,"Total Restaurants":null},{"level_0":14,"index":14,"Address":"3107 Wynwood Ln, Los Angeles, CA 90023","Latitude":34.0233167533,"Longitude":-118.2102532638,"X":-3609478.0387249803,"Y":4744539.8981011501,"Distance from center":5408.3269131959,"Total Restaurants":2.0},{"level_0":24,"index":24,"Address":"1410 S Soto St, Los Angeles, CA 90023","Latitude":34.0236150518,"Longitude":-118.2195088028,"X":-3610378.0387249803,"Y":4745059.5133434208,"Distance from center":4714.8700936504,"Total Restaurants":11.0},{"level_0":36,"index":36,"Address":"2424 E 11th St, Los Angeles, CA 90021","Latitude":34.0239122697,"Longitude":-118.2287636821,"X":-3611278.0387249803,"Y":4745579.1285856916,"Distance from center":4167.7331968347,"Total Restaurants":5.0},{"level_0":49,"index":49,"Address":"1426 Channing St, Los Angeles, CA 90021","Latitude":34.0242084071,"Longitude":-118.2380179012,"X":-3612178.0387249803,"Y":4746098.7438279623,"Distance from center":3830.1436004408,"Total Restaurants":7.0},{"level_0":64,"index":64,"Address":"1651 Naomi Ave, Los Angeles, CA 90021","Latitude":34.0245034644,"Longitude":-118.2472714598,"X":-3613078.0387249803,"Y":4746618.3590702321,"Distance from center":3758.9892258429,"Total Restaurants":2.0},{"level_0":81,"index":81,"Address":"916 E 21st St, Los Angeles, CA 90011","Latitude":34.0247974415,"Longitude":-118.2565243577,"X":-3613978.0387249803,"Y":4747137.9743125029,"Distance from center":3968.6269665972,"Total Restaurants":1.0},{"level_0":98,"index":98,"Address":"227 E 25th St, Los Angeles, CA 90011","Latitude":34.0250903387,"Longitude":-118.2657765943,"X":-3614878.0387249803,"Y":4747657.5895547736,"Distance from center":4419.275958797,"Total Restaurants":null},{"level_0":115,"index":115,"Address":"398 W 28th St, Los Angeles, CA 90007","Latitude":34.025382156,"Longitude":-118.2750281693,"X":-3615778.0387249803,"Y":4748177.2047970444,"Distance from center":5046.7811523783,"Total Restaurants":null},{"level_0":15,"index":15,"Address":"1033 S Concord St, Los Angeles, CA 90023","Latitude":34.0253920796,"Longitude":-118.2055214813,"X":-3608878.0387249803,"Y":4744539.8981011501,"Distance from center":5604.4625076808,"Total Restaurants":1.0},{"level_0":133,"index":133,"Address":"3205 S Hoover St, Los Angeles, CA 90007","Latitude":34.0256728937,"Longitude":-118.2842790824,"X":-3616678.0387249803,"Y":4748696.8200393151,"Distance from center":5793.9623747484,"Total Restaurants":null},{"level_0":25,"index":25,"Address":"60 E 8th St, Los Angeles, CA 90023","Latitude":34.0256907519,"Longitude":-118.2147777243,"X":-3609778.0387249803,"Y":4745059.5133434208,"Distance from center":4828.0430818292,"Total Restaurants":11.0},{"level_0":37,"index":37,"Address":"2556 E Olympic Blvd, Los Angeles, CA 90023","Latitude":34.0259883436,"Longitude":-118.2240333077,"X":-3610678.0387249803,"Y":4745579.1285856916,"Distance from center":4167.7331968347,"Total Restaurants":1.0},{"level_0":50,"index":50,"Address":"2211 E Olympic Blvd #2521, Los Angeles, CA 90021","Latitude":34.0262848548,"Longitude":-118.2332882312,"X":-3611578.0387249803,"Y":4746098.7438279623,"Distance from center":3686.4617182331,"Total Restaurants":2.0},{"level_0":65,"index":65,"Address":"1611 E 14th St, Los Angeles, CA 90021","Latitude":34.0265802856,"Longitude":-118.2425424943,"X":-3612478.0387249803,"Y":4746618.3590702321,"Distance from center":3459.7687784017,"Total Restaurants":2.0},{"level_0":82,"index":82,"Address":"1627 Paloma St, Los Angeles, CA 90021","Latitude":34.0268746361,"Longitude":-118.2517960967,"X":-3613378.0387249803,"Y":4747137.9743125029,"Distance from center":3536.9478367658,"Total Restaurants":4.0},{"level_0":99,"index":99,"Address":"515 E 21st St, Los Angeles, CA 90011","Latitude":34.0271679065,"Longitude":-118.261049038,"X":-3614278.0387249803,"Y":4747657.5895547736,"Distance from center":3900.0000000002,"Total Restaurants":null},{"level_0":116,"index":116,"Address":"228 W 24th St, Los Angeles, CA 90007","Latitude":34.027460097,"Longitude":-118.2703013179,"X":-3615178.0387249803,"Y":4748177.2047970444,"Distance from center":4479.9553569205,"Total Restaurants":null},{"level_0":16,"index":16,"Address":"3406 Whittier Blvd, Los Angeles, CA 90023","Latitude":34.0274673331,"Longitude":-118.2007892144,"X":-3608278.0387249803,"Y":4744539.8981011501,"Distance from center":5855.7663887829,"Total Restaurants":2.0},{"level_0":134,"index":134,"Address":"720 W 27th St, Los Angeles, CA 90007","Latitude":34.0277512077,"Longitude":-118.279552936,"X":-3616078.0387249803,"Y":4748696.8200393151,"Distance from center":5204.8054718693,"Total Restaurants":null},{"level_0":26,"index":26,"Address":"1040 Euclid Ave, Los Angeles, CA 90023","Latitude":34.0277663795,"Longitude":-118.2100461615,"X":-3609178.0387249803,"Y":4745059.5133434208,"Distance from center":5010.9879265469,"Total Restaurants":4.0},{"level_0":38,"index":38,"Address":"Soto \/ 8th, Los Angeles, CA 90023","Latitude":34.0280643451,"Longitude":-118.2193024491,"X":-3610078.0387249803,"Y":4745579.1285856916,"Distance from center":4253.2340636271,"Total Restaurants":1.0},{"level_0":51,"index":51,"Address":"2450 Enterprise St, Los Angeles, CA 90021","Latitude":34.02836123,"Longitude":-118.2285580769,"X":-3610978.0387249803,"Y":4746098.7438279623,"Distance from center":3637.3066958943,"Total Restaurants":7.0},{"level_0":66,"index":66,"Address":"2QH6+FV Los Angeles, CA","Latitude":34.0286570344,"Longitude":-118.2378130444,"X":-3611878.0387249803,"Y":4746618.3590702321,"Distance from center":3244.9961479181,"Total Restaurants":2.0},{"level_0":83,"index":83,"Address":"1213 E 14th St, Los Angeles, CA 90021","Latitude":34.0289517584,"Longitude":-118.2470673514,"X":-3612778.0387249803,"Y":4747137.9743125029,"Distance from center":3160.6961258562,"Total Restaurants":2.0},{"level_0":100,"index":100,"Address":"1629 San Pedro St, Los Angeles, CA 90015","Latitude":34.0292454022,"Longitude":-118.2563209975,"X":-3613678.0387249803,"Y":4747657.5895547736,"Distance from center":3407.3450074804,"Total Restaurants":null},{"level_0":117,"index":117,"Address":"2000 S Main St, Los Angeles, CA 90007","Latitude":34.0295379659,"Longitude":-118.2655739823,"X":-3614578.0387249803,"Y":4748177.2047970444,"Distance from center":3923.0090491867,"Total Restaurants":null},{"level_0":135,"index":135,"Address":"2335 S Figueroa St, Los Angeles, CA 90007","Latitude":34.0298294497,"Longitude":-118.2748263053,"X":-3615478.0387249803,"Y":4748696.8200393151,"Distance from center":4618.4412955022,"Total Restaurants":null},{"level_0":27,"index":27,"Address":"3123 Whittier Blvd, Los Angeles, CA 90023","Latitude":34.0298419343,"Longitude":-118.2053141145,"X":-3608578.0387249803,"Y":4745059.5133434208,"Distance from center":5256.4246403805,"Total Restaurants":3.0},{"level_0":153,"index":153,"Address":"2703 Hoover St, Los Angeles, CA 90007","Latitude":34.0301198537,"Longitude":-118.2840779664,"X":-3616378.0387249803,"Y":4749216.4352815859,"Distance from center":5424.9423960075,"Total Restaurants":null},{"level_0":39,"index":39,"Address":"1014 S Mott St, Los Angeles, CA 90023","Latitude":34.0301402739,"Longitude":-118.2145711062,"X":-3609478.0387249803,"Y":4745579.1285856916,"Distance from center":4419.2759587967,"Total Restaurants":7.0},{"level_0":52,"index":52,"Address":"786 S Mission Rd, Los Angeles, CA 90023","Latitude":34.0304375327,"Longitude":-118.2238274383,"X":-3610378.0387249803,"Y":4746098.7438279623,"Distance from center":3686.4617182331,"Total Restaurants":11.0},{"level_0":67,"index":67,"Address":"2232 Sacramento St, Los Angeles, CA 90021","Latitude":34.0307337108,"Longitude":-118.2330831103,"X":-3611278.0387249803,"Y":4746618.3590702321,"Distance from center":3132.0919526737,"Total Restaurants":6.0},{"level_0":84,"index":84,"Address":"1601 E Olympic Blvd Suite 313-314, Los Angeles, CA 90021","Latitude":34.0310288084,"Longitude":-118.2423381218,"X":-3612178.0387249803,"Y":4747137.9743125029,"Distance from center":2861.8176042512,"Total Restaurants":6.0},{"level_0":101,"index":101,"Address":"778 E Pico Blvd, Los Angeles, CA 90021","Latitude":34.0313228256,"Longitude":-118.2515924726,"X":-3613078.0387249803,"Y":4747657.5895547736,"Distance from center":2954.6573405391,"Total Restaurants":null},{"level_0":118,"index":118,"Address":"1605 Santee St, Los Angeles, CA 90015","Latitude":34.0316157627,"Longitude":-118.2608461622,"X":-3613978.0387249803,"Y":4748177.2047970444,"Distance from center":3380.8283008755,"Total Restaurants":null},{"level_0":136,"index":136,"Address":"MH, 400 W Washington Blvd, Los Angeles, CA 90015","Latitude":34.0319076197,"Longitude":-118.2700991903,"X":-3614878.0387249803,"Y":4748696.8200393151,"Distance from center":4036.0872141222,"Total Restaurants":null},{"level_0":28,"index":28,"Address":"552 S Concord St, Los Angeles, CA 90063","Latitude":34.0319174164,"Longitude":-118.2005815831,"X":-3607978.0387249803,"Y":4745059.5133434208,"Distance from center":5556.0777532355,"Total Restaurants":7.0},{"level_0":154,"index":154,"Address":"13 St James Park, Los Angeles, CA 90007","Latitude":34.0321983967,"Longitude":-118.2793515564,"X":-3615778.0387249803,"Y":4749216.4352815859,"Distance from center":4828.0430818293,"Total Restaurants":null},{"level_0":40,"index":40,"Address":"2801 Whittier Blvd, Los Angeles, CA 90023","Latitude":34.0322161301,"Longitude":-118.209839279,"X":-3608878.0387249803,"Y":4745579.1285856916,"Distance from center":4657.2524088778,"Total Restaurants":2.0},{"level_0":172,"index":172,"Address":"1286 W Adams Blvd, Los Angeles, CA 90007","Latitude":34.032488094,"Longitude":-118.2886032604,"X":-3616678.0387249803,"Y":4749736.0505238567,"Distance from center":5700.0,"Total Restaurants":null},{"level_0":53,"index":53,"Address":"2422 E 7th St, Los Angeles, CA 90023","Latitude":34.0325137628,"Longitude":-118.2190963153,"X":-3609778.0387249803,"Y":4746098.7438279623,"Distance from center":3830.1436004408,"Total Restaurants":1.0},{"level_0":68,"index":68,"Address":"2143 Violet St, Los Angeles, CA 90021","Latitude":34.0328103147,"Longitude":-118.2283526917,"X":-3610678.0387249803,"Y":4746618.3590702321,"Distance from center":3132.0919526737,"Total Restaurants":2.0},{"level_0":85,"index":85,"Address":"732 Alameda St, Los Angeles, CA 90021","Latitude":34.033105786,"Longitude":-118.2376084079,"X":-3611578.0387249803,"Y":4747137.9743125029,"Distance from center":2666.4583251951,"Total Restaurants":1.0},{"level_0":102,"index":102,"Address":"1018 E Olympic Blvd, Los Angeles, CA 90021","Latitude":34.0334001768,"Longitude":-118.2468634633,"X":-3612478.0387249803,"Y":4747657.5895547736,"Distance from center":2563.2011235956,"Total Restaurants":null},{"level_0":119,"index":119,"Address":"1301 Myrtle St, Los Angeles, CA 90015","Latitude":34.0336934873,"Longitude":-118.2561178578,"X":-3613378.0387249803,"Y":4748177.2047970444,"Distance from center":2861.817604251,"Total Restaurants":null},{"level_0":137,"index":137,"Address":"1753 S Hill St #4, Los Angeles, CA 90015","Latitude":34.0339857175,"Longitude":-118.2653715908,"X":-3614278.0387249803,"Y":4748696.8200393151,"Distance from center":3459.7687784013,"Total Restaurants":null},{"level_0":29,"index":29,"Address":"3423 East 4th St, Los Angeles, CA 90063","Latitude":34.0339928257,"Longitude":-118.1958485674,"X":-3607378.0387249803,"Y":4745059.5133434208,"Distance from center":5901.6946718717,"Total Restaurants":2.0},{"level_0":155,"index":155,"Address":"1933 Estrella Ave, Los Angeles, CA 90007","Latitude":34.0342768677,"Longitude":-118.2746246621,"X":-3615178.0387249803,"Y":4749216.4352815859,"Distance from center":4232.0207938998,"Total Restaurants":null},{"level_0":41,"index":41,"Address":"538 1\/2 Euclid Ave, Los Angeles, CA 90063","Latitude":34.0342919135,"Longitude":-118.2051069674,"X":-3608278.0387249803,"Y":4745579.1285856916,"Distance from center":4956.8134925573,"Total Restaurants":2.0},{"level_0":173,"index":173,"Address":"Hoover \/ Union, Los Angeles, CA 90007","Latitude":34.0345669381,"Longitude":-118.2838770712,"X":-3616078.0387249803,"Y":4749736.0505238567,"Distance from center":5100.0,"Total Restaurants":null},{"level_0":54,"index":54,"Address":"724 Penrith Dr, Los Angeles, CA 90023","Latitude":34.0345899203,"Longitude":-118.214364708,"X":-3609178.0387249803,"Y":4746098.7438279623,"Distance from center":4058.3247775403,"Total Restaurants":1.0},{"level_0":69,"index":69,"Address":"C.c.c, 2235 E 7th St, Los Angeles, CA 90023","Latitude":34.0348868461,"Longitude":-118.2236217888,"X":-3610078.0387249803,"Y":4746618.3590702321,"Distance from center":3244.9961479181,"Total Restaurants":1.0},{"level_0":86,"index":86,"Address":"1850 Industrial St #107, Los Angeles, CA 90021","Latitude":34.0351826912,"Longitude":-118.2328782095,"X":-3610978.0387249803,"Y":4747137.9743125029,"Distance from center":2598.0762113538,"Total Restaurants":2.0},{"level_0":103,"index":103,"Address":"743 S Central Ave, Los Angeles, CA 90021","Latitude":34.0354774556,"Longitude":-118.2421339696,"X":-3611878.0387249803,"Y":4747657.5895547736,"Distance from center":2264.9503305816,"Total Restaurants":null},{"level_0":120,"index":120,"Address":"707 E 10th St, Los Angeles, CA 90021","Latitude":34.0357711396,"Longitude":-118.2513890689,"X":-3612778.0387249803,"Y":4748177.2047970444,"Distance from center":2381.1761799583,"Total Restaurants":null},{"level_0":138,"index":138,"Address":"1317 S Main St, Los Angeles, CA 90015","Latitude":34.0360637432,"Longitude":-118.2606435069,"X":-3613678.0387249803,"Y":4748696.8200393151,"Distance from center":2893.095228298,"Total Restaurants":null},{"level_0":156,"index":156,"Address":"2 S Figueroa St, Los Angeles, CA 90015","Latitude":34.0363552667,"Longitude":-118.2698972832,"X":-3614578.0387249803,"Y":4749216.4352815859,"Distance from center":3637.3066958947,"Total Restaurants":null},{"level_0":42,"index":42,"Address":"311 S Fresno St, Los Angeles, CA 90063","Latitude":34.0363676242,"Longitude":-118.2003741715,"X":-3607678.0387249803,"Y":4745579.1285856916,"Distance from center":5307.5418038861,"Total Restaurants":2.0},{"level_0":174,"index":174,"Address":"936 W Washington Blvd, Los Angeles, CA 90015","Latitude":34.0366457101,"Longitude":-118.2791503976,"X":-3615478.0387249803,"Y":4749736.0505238567,"Distance from center":4500.0,"Total Restaurants":null},{"level_0":55,"index":55,"Address":"503 S Mott St, Los Angeles, CA 90033","Latitude":34.0366660051,"Longitude":-118.2096326163,"X":-3608578.0387249803,"Y":4746098.7438279623,"Distance from center":4357.7517138999,"Total Restaurants":2.0},{"level_0":192,"index":192,"Address":"2130 Orchard Ave., Los Angeles, CA 90007","Latitude":34.0369350736,"Longitude":-118.2884028496,"X":-3616378.0387249803,"Y":4750255.6657661274,"Distance from center":5424.9423960075,"Total Restaurants":null},{"level_0":70,"index":70,"Address":"743 S St Louis St, Los Angeles, CA 90023","Latitude":34.0369633049,"Longitude":-118.2188904015,"X":-3609478.0387249803,"Y":4746618.3590702321,"Distance from center":3459.7687784017,"Total Restaurants":4.0},{"level_0":87,"index":87,"Address":"610 Mesquit St, Los Angeles, CA 90021","Latitude":34.0372595238,"Longitude":-118.2281475267,"X":-3610378.0387249803,"Y":4747137.9743125029,"Distance from center":2666.4583251951,"Total Restaurants":3.0},{"level_0":104,"index":104,"Address":"1230 E 6th St, Los Angeles, CA 90021","Latitude":34.037554662,"Longitude":-118.2374039915,"X":-3611278.0387249803,"Y":4747657.5895547736,"Distance from center":2100.0000000004,"Total Restaurants":null},{"level_0":121,"index":121,"Address":"766 Towne Ave, Los Angeles, CA 90021","Latitude":34.0378487196,"Longitude":-118.2466597956,"X":-3612178.0387249803,"Y":4748177.2047970444,"Distance from center":1967.2315572908,"Total Restaurants":null},{"level_0":139,"index":139,"Address":"1036 Santee St, Los Angeles, CA 90015","Latitude":34.0381416967,"Longitude":-118.2559149385,"X":-3613078.0387249803,"Y":4748696.8200393151,"Distance from center":2343.0749027721,"Total Restaurants":null},{"level_0":157,"index":157,"Address":"1317-1323 S Grand Ave, Los Angeles, CA 90015","Latitude":34.0384335935,"Longitude":-118.2651694199,"X":-3613978.0387249803,"Y":4749216.4352815859,"Distance from center":3044.6674695277,"Total Restaurants":null},{"level_0":43,"index":43,"Address":"3301 E 1st St, Los Angeles, CA 90063","Latitude":34.0384432621,"Longitude":-118.1956408911,"X":-3607078.0387249803,"Y":4745579.1285856916,"Distance from center":5699.9999999998,"Total Restaurants":2.0},{"level_0":175,"index":175,"Address":"824 Venice Blvd., Los Angeles, CA 90015","Latitude":34.0387244101,"Longitude":-118.2744232395,"X":-3614878.0387249803,"Y":4749736.0505238567,"Distance from center":3900.0,"Total Restaurants":null},{"level_0":56,"index":56,"Address":"2844 E 2nd St, Los Angeles, CA 90033","Latitude":34.0387420171,"Longitude":-118.2049000402,"X":-3607978.0387249803,"Y":4746098.7438279623,"Distance from center":4714.8700936503,"Total Restaurants":3.0},{"level_0":193,"index":193,"Address":"1940 S Hoover St, Los Angeles, CA 90007","Latitude":34.0390141467,"Longitude":-118.2836763969,"X":-3615778.0387249803,"Y":4750255.6657661274,"Distance from center":4828.0430818293,"Total Restaurants":null},{"level_0":71,"index":71,"Address":"520 1\/2 S Breed St, Los Angeles, CA 90033","Latitude":34.039039691,"Longitude":-118.2141585298,"X":-3608878.0387249803,"Y":4746618.3590702321,"Distance from center":3758.9892258429,"Total Restaurants":1.0},{"level_0":211,"index":211,"Address":"1637 Cordova St, Los Angeles, CA 90007","Latitude":34.0393028034,"Longitude":-118.2929288916,"X":-3616678.0387249803,"Y":4750775.2810083982,"Distance from center":5793.9623747484,"Total Restaurants":null},{"level_0":88,"index":88,"Address":"1655 E 6th St, Los Angeles, CA 90023","Latitude":34.0393362839,"Longitude":-118.2234163595,"X":-3609778.0387249803,"Y":4747137.9743125029,"Distance from center":2861.8176042512,"Total Restaurants":2.0},{"level_0":105,"index":105,"Address":"564 Mateo St, Los Angeles, CA 90013","Latitude":34.0396317959,"Longitude":-118.2326735289,"X":-3610678.0387249803,"Y":4747657.5895547736,"Distance from center":2100.0000000004,"Total Restaurants":null},{"level_0":122,"index":122,"Address":"838 E 6th St, Los Angeles, CA 90021","Latitude":34.0399262272,"Longitude":-118.2419300378,"X":-3611578.0387249803,"Y":4748177.2047970444,"Distance from center":1670.3293088493,"Total Restaurants":null},{"level_0":140,"index":140,"Address":"810 S Cecilia St, Los Angeles, CA 90014","Latitude":34.0402195778,"Longitude":-118.2511858856,"X":-3612478.0387249803,"Y":4748696.8200393151,"Distance from center":1824.8287590896,"Total Restaurants":null},{"level_0":158,"index":158,"Address":"218 W 11th St, Los Angeles, CA 90015","Latitude":34.0405118481,"Longitude":-118.2604410721,"X":-3613378.0387249803,"Y":4749216.4352815859,"Distance from center":2455.6058315618,"Total Restaurants":null},{"level_0":176,"index":176,"Address":"836-886 W Pico Blvd, Los Angeles, CA 90015","Latitude":34.040803038,"Longitude":-118.2696955969,"X":-3614278.0387249803,"Y":4749736.0505238567,"Distance from center":3300.0,"Total Restaurants":null},{"level_0":57,"index":57,"Address":"2QRX+8W Los Angeles, CA","Latitude":34.0408179564,"Longitude":-118.2001669796,"X":-3607378.0387249803,"Y":4746098.7438279623,"Distance from center":5117.6166327694,"Total Restaurants":2.0},{"level_0":194,"index":194,"Address":"1034 Venice Blvd., Los Angeles, CA 90015","Latitude":34.0410931478,"Longitude":-118.2789494596,"X":-3615178.0387249803,"Y":4750255.6657661274,"Distance from center":4232.0207938998,"Total Restaurants":null},{"level_0":72,"index":72,"Address":"2510 E 2nd St, Los Angeles, CA 90033","Latitude":34.0411160045,"Longitude":-118.2094261736,"X":-3608278.0387249803,"Y":4746618.3590702321,"Distance from center":4124.3181254607,"Total Restaurants":2.0},{"level_0":212,"index":212,"Address":"1802 Orchard Ave., Los Angeles, CA 90006","Latitude":34.0413821775,"Longitude":-118.2882026598,"X":-3616078.0387249803,"Y":4750775.2810083982,"Distance from center":5204.8054718693,"Total Restaurants":null},{"level_0":89,"index":89,"Address":"1817 E 5th St, Los Angeles, CA 90033","Latitude":34.0414129714,"Longitude":-118.2186847077,"X":-3609178.0387249803,"Y":4747137.9743125029,"Distance from center":3160.6961258562,"Total Restaurants":4.0},{"level_0":106,"index":106,"Address":"375 S Mission Rd, Los Angeles, CA 90033","Latitude":34.0417088573,"Longitude":-118.2279425818,"X":-3610078.0387249803,"Y":4747657.5895547736,"Distance from center":2264.9503305816,"Total Restaurants":null},{"level_0":123,"index":123,"Address":"450 Seaton St, Los Angeles, CA 90013","Latitude":34.0420036624,"Longitude":-118.2371997954,"X":-3610978.0387249803,"Y":4748177.2047970444,"Distance from center":1558.8457268123,"Total Restaurants":null},{"level_0":141,"index":141,"Address":"625 San Julian St, Los Angeles, CA 90014","Latitude":34.0422973867,"Longitude":-118.2464563482,"X":-3611878.0387249803,"Y":4748696.8200393151,"Distance from center":1374.7727084869,"Total Restaurants":null},{"level_0":159,"index":159,"Address":"850 S Broadway, Los Angeles, CA 90014","Latitude":34.0425900304,"Longitude":-118.2557122397,"X":-3612778.0387249803,"Y":4749216.4352815859,"Distance from center":1873.4993995195,"Total Restaurants":null},{"level_0":177,"index":177,"Address":"14 S Figueroa St, Los Angeles, CA 90015","Latitude":34.0428815937,"Longitude":-118.2649674697,"X":-3613678.0387249803,"Y":4749736.0505238567,"Distance from center":2700.0,"Total Restaurants":null},{"level_0":58,"index":58,"Address":"448 N Fresno St, Los Angeles, CA 90063","Latitude":34.0428938228,"Longitude":-118.1954334346,"X":-3606778.0387249803,"Y":4746098.7438279623,"Distance from center":5556.0777532354,"Total Restaurants":3.0},{"level_0":195,"index":195,"Address":"Pico \/ Albany, Los Angeles, CA 90015","Latitude":34.0431720768,"Longitude":-118.2742220377,"X":-3614578.0387249803,"Y":4750255.6657661274,"Distance from center":3637.3066958947,"Total Restaurants":null},{"level_0":73,"index":73,"Address":"2714 Michigan Ave, Los Angeles, CA 90033","Latitude":34.0431922451,"Longitude":-118.2046933328,"X":-3607678.0387249803,"Y":4746618.3590702321,"Distance from center":4539.8237851268,"Total Restaurants":6.0},{"level_0":213,"index":213,"Address":"1348 Venice Blvd., Los Angeles, CA 90006","Latitude":34.0434614797,"Longitude":-118.2834759434,"X":-3615478.0387249803,"Y":4750775.2810083982,"Distance from center":4618.4412955022,"Total Restaurants":null},{"level_0":90,"index":90,"Address":"2112 E 2nd St, Los Angeles, CA 90033","Latitude":34.0434895862,"Longitude":-118.2139525715,"X":-3608578.0387249803,"Y":4747137.9743125029,"Distance from center":3536.9478367658,"Total Restaurants":2.0},{"level_0":231,"index":231,"Address":"1615 S New Hampshire Ave, Los Angeles, CA 90006","Latitude":34.0437498026,"Longitude":-118.2927291864,"X":-3616378.0387249803,"Y":4751294.8962506689,"Distance from center":5620.4981985586,"Total Restaurants":null},{"level_0":107,"index":107,"Address":"375 S Gless St, Los Angeles, CA 90033","Latitude":34.0437858461,"Longitude":-118.2232111502,"X":-3609478.0387249803,"Y":4747657.5895547736,"Distance from center":2563.2011235956,"Total Restaurants":null},{"level_0":124,"index":124,"Address":"244 S Santa Fe Ave, Los Angeles, CA 90013","Latitude":34.044081025,"Longitude":-118.2324690685,"X":-3610378.0387249803,"Y":4748177.2047970444,"Distance from center":1670.3293088493,"Total Restaurants":null},{"level_0":142,"index":142,"Address":"414 Crocker St, Los Angeles, CA 90013","Latitude":34.0443751231,"Longitude":-118.2417263262,"X":-3611278.0387249803,"Y":4748696.8200393151,"Distance from center":1081.6653826394,"Total Restaurants":null},{"level_0":160,"index":160,"Address":"643 S Main St, Los Angeles, CA 90014","Latitude":34.0446681405,"Longitude":-118.2509829228,"X":-3612178.0387249803,"Y":4749216.4352815859,"Distance from center":1307.6696830622,"Total Restaurants":null},{"level_0":178,"index":178,"Address":"601 W 9th St, Los Angeles, CA 90015","Latitude":34.0449600773,"Longitude":-118.2602388579,"X":-3613078.0387249803,"Y":4749736.0505238567,"Distance from center":2100.0,"Total Restaurants":null},{"level_0":196,"index":196,"Address":"1015 Chick Hearn Ct, Los Angeles, CA 90015","Latitude":34.0452509336,"Longitude":-118.2694941312,"X":-3613978.0387249803,"Y":4750255.6657661274,"Distance from center":3044.6674695277,"Total Restaurants":null},{"level_0":74,"index":74,"Address":"2834 Folsom St, Los Angeles, CA 90033","Latitude":34.045268413,"Longitude":-118.1999600076,"X":-3607078.0387249803,"Y":4746618.3590702321,"Distance from center":4992.9950931283,"Total Restaurants":8.0},{"level_0":214,"index":214,"Address":"1727 W Pico Blvd, Los Angeles, CA 90015","Latitude":34.0455407097,"Longitude":-118.2787487423,"X":-3614878.0387249803,"Y":4750775.2810083982,"Distance from center":4036.0872141222,"Total Restaurants":null},{"level_0":91,"index":91,"Address":"2317 Michigan Ave, Los Angeles, CA 90033","Latitude":34.0455661283,"Longitude":-118.2092199507,"X":-3607978.0387249803,"Y":4747137.9743125029,"Distance from center":3968.6269665972,"Total Restaurants":5.0},{"level_0":232,"index":232,"Address":"2250 W 14th St, Los Angeles, CA 90006","Latitude":34.0458294057,"Longitude":-118.2880026909,"X":-3615778.0387249803,"Y":4751294.8962506689,"Distance from center":5046.7811523783,"Total Restaurants":null},{"level_0":108,"index":108,"Address":"1843 E 2nd St, Los Angeles, CA 90033","Latitude":34.0458627623,"Longitude":-118.218479234,"X":-3608878.0387249803,"Y":4747657.5895547736,"Distance from center":2954.6573405391,"Total Restaurants":null},{"level_0":125,"index":125,"Address":"152 S Mission Rd, Los Angeles, CA 90033","Latitude":34.0461583152,"Longitude":-118.2277378571,"X":-3609778.0387249803,"Y":4748177.2047970444,"Distance from center":1967.2315572908,"Total Restaurants":null},{"level_0":143,"index":143,"Address":"629 Traction Ave, Los Angeles, CA 90013","Latitude":34.0464527871,"Longitude":-118.2369958196,"X":-3610678.0387249803,"Y":4748696.8200393151,"Distance from center":1081.6653826394,"Total Restaurants":null},{"level_0":161,"index":161,"Address":"410 S Los Angeles St, Los Angeles, CA 90013","Latitude":34.0467461781,"Longitude":-118.2462531212,"X":-3611578.0387249803,"Y":4749216.4352815859,"Distance from center":793.7253933194,"Total Restaurants":null},{"level_0":179,"index":179,"Address":"659 S Olive St, Los Angeles, CA 90014","Latitude":34.0470384885,"Longitude":-118.2555097615,"X":-3612478.0387249803,"Y":4749736.0505238567,"Distance from center":1500.0,"Total Restaurants":null},{"level_0":197,"index":197,"Address":"899 Francisco St, Los Angeles, CA 90017","Latitude":34.0473297183,"Longitude":-118.2647657401,"X":-3613378.0387249803,"Y":4750255.6657661274,"Distance from center":2455.6058315618,"Total Restaurants":null},{"level_0":75,"index":75,"Address":"3133 Blanchard St, Los Angeles, CA 90063","Latitude":34.0473445079,"Longitude":-118.1952261977,"X":-3606478.0387249803,"Y":4746618.3590702321,"Distance from center":5474.4862772687,"Total Restaurants":1.0},{"level_0":215,"index":215,"Address":"Rth, W 11th St, Los Angeles, CA 90015","Latitude":34.0476198677,"Longitude":-118.2740210566,"X":-3614278.0387249803,"Y":4750775.2810083982,"Distance from center":3459.7687784013,"Total Restaurants":null},{"level_0":92,"index":92,"Address":"426 N Fickett St, Los Angeles, CA 90033","Latitude":34.0476425975,"Longitude":-118.2044868453,"X":-3607378.0387249803,"Y":4747137.9743125029,"Distance from center":4439.5945760849,"Total Restaurants":6.0},{"level_0":233,"index":233,"Address":"1244 S Lake St, Los Angeles, CA 90006","Latitude":34.0479089369,"Longitude":-118.2832757108,"X":-3615178.0387249803,"Y":4751294.8962506689,"Distance from center":4479.9553569205,"Total Restaurants":null},{"level_0":109,"index":109,"Address":"319 N Cummings St, Los Angeles, CA 90033","Latitude":34.0479396057,"Longitude":-118.2137468332,"X":-3608278.0387249803,"Y":4747657.5895547736,"Distance from center":3407.3450074804,"Total Restaurants":null},{"level_0":250,"index":250,"Address":"1228 S New Hampshire Ave, Los Angeles, CA 90006","Latitude":34.0481969259,"Longitude":-118.2925297022,"X":-3616078.0387249803,"Y":4751814.5114929387,"Distance from center":5507.2679252055,"Total Restaurants":null},{"level_0":126,"index":126,"Address":"121 Cancion Way, Los Angeles, CA 90033","Latitude":34.0482355327,"Longitude":-118.223006161,"X":-3609178.0387249803,"Y":4748177.2047970444,"Distance from center":2381.1761799583,"Total Restaurants":null},{"level_0":144,"index":144,"Address":"100 N Santa Fe Ave, Los Angeles, CA 90012","Latitude":34.0485303785,"Longitude":-118.2322648284,"X":-3610078.0387249803,"Y":4748696.8200393151,"Distance from center":1374.7727084869,"Total Restaurants":null},{"level_0":162,"index":162,"Address":"316-B E 2nd St, Los Angeles, CA 90012","Latitude":34.0488241434,"Longitude":-118.241522835,"X":-3610978.0387249803,"Y":4749216.4352815859,"Distance from center":519.6152422708,"Total Restaurants":null},{"level_0":180,"index":180,"Address":"436 S Hill St, Los Angeles, CA 90013","Latitude":34.0491168274,"Longitude":-118.2507801804,"X":-3611878.0387249803,"Y":4749736.0505238567,"Distance from center":900.0,"Total Restaurants":null},{"level_0":198,"index":198,"Address":"7th St &, Figueroa St, Los Angeles, CA 90017","Latitude":34.0494084308,"Longitude":-118.2600368643,"X":-3612778.0387249803,"Y":4750255.6657661274,"Distance from center":1873.4993995195,"Total Restaurants":null},{"level_0":76,"index":76,"Address":"3312 Ganahl St, Los Angeles, CA 90063","Latitude":34.04942053,"Longitude":-118.1904919033,"X":-3605878.0387249803,"Y":4746618.3590702321,"Distance from center":5977.4576535517,"Total Restaurants":24.0},{"level_0":216,"index":216,"Address":"1315 James M Wood Blvd, Los Angeles, CA 90015","Latitude":34.0496989536,"Longitude":-118.2692928862,"X":-3613678.0387249803,"Y":4750775.2810083982,"Distance from center":2893.095228298,"Total Restaurants":null},{"level_0":93,"index":93,"Address":"2732 Fairmount St, Los Angeles, CA 90033","Latitude":34.049718994,"Longitude":-118.1997532553,"X":-3606778.0387249803,"Y":4747137.9743125029,"Distance from center":4938.6232899465,"Total Restaurants":2.0},{"level_0":234,"index":234,"Address":"1031 S Bonnie Brae St, Los Angeles, CA 90006","Latitude":34.049988396,"Longitude":-118.2785482459,"X":-3614578.0387249803,"Y":4751294.8962506689,"Distance from center":3923.0090491867,"Total Restaurants":null},{"level_0":110,"index":110,"Address":"2211 Bird St, Los Angeles, CA 90033","Latitude":34.0500163764,"Longitude":-118.2090139478,"X":-3607678.0387249803,"Y":4747657.5895547736,"Distance from center":3900.0000000002,"Total Restaurants":null},{"level_0":251,"index":251,"Address":"1116 1\/2 Elden Ave, Los Angeles, CA 90006","Latitude":34.0502767582,"Longitude":-118.287802943,"X":-3615478.0387249803,"Y":4751814.5114929387,"Distance from center":4956.8134925573,"Total Restaurants":null},{"level_0":127,"index":127,"Address":"1620 New Jersey St, Los Angeles, CA 90033","Latitude":34.0503126775,"Longitude":-118.2182739803,"X":-3608578.0387249803,"Y":4748177.2047970444,"Distance from center":2861.817604251,"Total Restaurants":null},{"level_0":268,"index":268,"Address":"1109 S Kenmore Ave, Los Angeles, CA 90006","Latitude":34.0505640403,"Longitude":-118.2970569771,"X":-3616378.0387249803,"Y":4752334.1267352095,"Distance from center":5992.4953066312,"Total Restaurants":null},{"level_0":145,"index":145,"Address":"229 N Mission Rd, Los Angeles, CA 90033","Latitude":34.0506078974,"Longitude":-118.2275333525,"X":-3609478.0387249803,"Y":4748696.8200393151,"Distance from center":1824.8287590896,"Total Restaurants":null},{"level_0":163,"index":163,"Address":"433 E Temple St, Los Angeles, CA 90012","Latitude":34.0509020361,"Longitude":-118.2367920641,"X":-3610378.0387249803,"Y":4749216.4352815859,"Distance from center":793.7253933194,"Total Restaurants":null},{"level_0":181,"index":181,"Address":"Spring & 2nd, Los Angeles, CA 90012","Latitude":34.0511950939,"Longitude":-118.2460501146,"X":-3611278.0387249803,"Y":4749736.0505238567,"Distance from center":300.0,"Total Restaurants":null},{"level_0":199,"index":199,"Address":"444 Flower St, Los Angeles, CA 90071","Latitude":34.0514870709,"Longitude":-118.2553075038,"X":-3612178.0387249803,"Y":4750255.6657661274,"Distance from center":1307.6696830622,"Total Restaurants":null},{"level_0":217,"index":217,"Address":"1124 Ingraham St, Los Angeles, CA 90017","Latitude":34.0517779672,"Longitude":-118.2645642311,"X":-3613078.0387249803,"Y":4750775.2810083982,"Distance from center":2343.0749027721,"Total Restaurants":null},{"level_0":94,"index":94,"Address":"3023 Ganahl St, Los Angeles, CA 90063","Latitude":34.0517953175,"Longitude":-118.1950191807,"X":-3606178.0387249803,"Y":4747137.9743125029,"Distance from center":5458.0216195983,"Total Restaurants":1.0},{"level_0":235,"index":235,"Address":"821 Beacon Ave, Los Angeles, CA 90017","Latitude":34.052067783,"Longitude":-118.2738202964,"X":-3613978.0387249803,"Y":4751294.8962506689,"Distance from center":3380.8283008755,"Total Restaurants":null},{"level_0":111,"index":111,"Address":"900 N Soto St Unit B, Los Angeles, CA 90033","Latitude":34.0520930743,"Longitude":-118.2042805777,"X":-3607078.0387249803,"Y":4747657.5895547736,"Distance from center":4419.275958797,"Total Restaurants":null},{"level_0":252,"index":252,"Address":"2330W W Olympic Blvd, Los Angeles, CA 90006","Latitude":34.0523565184,"Longitude":-118.2830756991,"X":-3614878.0387249803,"Y":4751814.5114929387,"Distance from center":4419.2759587966,"Total Restaurants":null},{"level_0":128,"index":128,"Address":"1904 Bailey St # 100, Los Angeles, CA 90033","Latitude":34.0523897497,"Longitude":-118.2135413149,"X":-3607978.0387249803,"Y":4748177.2047970444,"Distance from center":3380.8283008755,"Total Restaurants":null},{"level_0":269,"index":269,"Address":"2716 W Olympic Blvd Ste #101, Los Angeles, CA 90006","Latitude":34.0526441736,"Longitude":-118.292330439,"X":-3615778.0387249803,"Y":4752334.1267352095,"Distance from center":5458.0216195978,"Total Restaurants":null},{"level_0":146,"index":146,"Address":"1208 Pleasant Ave, Los Angeles, CA 90033","Latitude":34.0526853436,"Longitude":-118.222801392,"X":-3608878.0387249803,"Y":4748696.8200393151,"Distance from center":2343.0749027721,"Total Restaurants":null},{"level_0":164,"index":164,"Address":"7155 E Commercial St, Los Angeles, CA 90012","Latitude":34.0529798563,"Longitude":-118.2320608085,"X":-3609778.0387249803,"Y":4749216.4352815859,"Distance from center":1307.6696830622,"Total Restaurants":null},{"level_0":182,"index":182,"Address":"196 N Los Angeles St, Los Angeles, CA 90012","Latitude":34.053273288,"Longitude":-118.2413195642,"X":-3610678.0387249803,"Y":4749736.0505238567,"Distance from center":300.0,"Total Restaurants":null},{"level_0":200,"index":200,"Address":"250 S Grand Ave, Los Angeles, CA 90012","Latitude":34.0535656387,"Longitude":-118.2505776586,"X":-3611578.0387249803,"Y":4750255.6657661274,"Distance from center":793.7253933194,"Total Restaurants":null},{"level_0":218,"index":218,"Address":"Putt Putt Dog Park, 530 S Beaudry Ave, Los Angeles, CA 90017, United States","Latitude":34.0538569086,"Longitude":-118.2598350913,"X":-3612478.0387249803,"Y":4750775.2810083982,"Distance from center":1824.8287590896,"Total Restaurants":null},{"level_0":95,"index":95,"Address":"1319 N Ditman Ave, Los Angeles, CA 90063","Latitude":34.053871568,"Longitude":-118.1902846214,"X":-3605578.0387249803,"Y":4747137.9743125029,"Distance from center":5992.4953066316,"Total Restaurants":null},{"level_0":236,"index":236,"Address":"1505 Ingraham St, Los Angeles, CA 90017","Latitude":34.0541470978,"Longitude":-118.2690918621,"X":-3613378.0387249803,"Y":4751294.8962506689,"Distance from center":2861.817604251,"Total Restaurants":null},{"level_0":112,"index":112,"Address":"2570 Marengo St, Los Angeles, CA 90033","Latitude":34.0541696993,"Longitude":-118.1995467229,"X":-3606478.0387249803,"Y":4747657.5895547736,"Distance from center":4956.8134925576,"Total Restaurants":null},{"level_0":253,"index":253,"Address":"819 S Alvarado St # 204, Los Angeles, CA 90057","Latitude":34.0544362065,"Longitude":-118.2783479704,"X":-3614278.0387249803,"Y":4751814.5114929387,"Distance from center":3899.9999999997,"Total Restaurants":null},{"level_0":129,"index":129,"Address":"1011 N Cummings St, Los Angeles, CA 90033","Latitude":34.054466749,"Longitude":-118.2088081648,"X":-3607378.0387249803,"Y":4748177.2047970444,"Distance from center":3923.0090491867,"Total Restaurants":null},{"level_0":270,"index":270,"Address":"2720 San Marino St, Los Angeles, CA 90006","Latitude":34.0547242349,"Longitude":-118.2876034161,"X":-3615178.0387249803,"Y":4752334.1267352095,"Distance from center":4938.623289946,"Total Restaurants":null},{"level_0":147,"index":147,"Address":"1433 Mitchell Pl, Los Angeles, CA 90033","Latitude":34.0547627171,"Longitude":-118.2180689467,"X":-3608278.0387249803,"Y":4748696.8200393151,"Distance from center":2893.095228298,"Total Restaurants":null},{"level_0":287,"index":287,"Address":"923 S Kenmore Ave, Los Angeles, CA 90006","Latitude":34.0550111831,"Longitude":-118.2968581987,"X":-3616078.0387249803,"Y":4752853.7419774802,"Distance from center":5977.4576535512,"Total Restaurants":null},{"level_0":165,"index":165,"Address":"850 East Cesar E Chavez Avenue, Los Angeles, CA 90012","Latitude":34.0550576039,"Longitude":-118.2273290682,"X":-3609178.0387249803,"Y":4749216.4352815859,"Distance from center":1873.4993995195,"Total Restaurants":null},{"level_0":183,"index":183,"Address":"700 N Alameda St, Los Angeles, CA 90012","Latitude":34.0553514095,"Longitude":-118.236588529,"X":-3610078.0387249803,"Y":4749736.0505238567,"Distance from center":900.0,"Total Restaurants":null},{"level_0":201,"index":201,"Address":"Grand Park, 200 N Grand Ave, Los Angeles, CA 90012","Latitude":34.055644134,"Longitude":-118.2458473286,"X":-3610978.0387249803,"Y":4750255.6657661274,"Distance from center":519.6152422708,"Total Restaurants":null},{"level_0":219,"index":219,"Address":"261 S Figueroa St # 200, Los Angeles, CA 90012","Latitude":34.0559357776,"Longitude":-118.2551054667,"X":-3611878.0387249803,"Y":4750775.2810083982,"Distance from center":1374.7727084869,"Total Restaurants":null},{"level_0":237,"index":237,"Address":"487 Hartford Ave, Los Angeles, CA 90017","Latitude":34.0562263404,"Longitude":-118.2643629429,"X":-3612778.0387249803,"Y":4751294.8962506689,"Distance from center":2381.1761799583,"Total Restaurants":null},{"level_0":113,"index":113,"Address":"2755 Lancaster Ave, Los Angeles, CA 90033","Latitude":34.0562462514,"Longitude":-118.1948123835,"X":-3605878.0387249803,"Y":4747657.5895547736,"Distance from center":5507.2679252059,"Total Restaurants":null},{"level_0":254,"index":254,"Address":"658 S Bonnie Brae St, Los Angeles, CA 90057","Latitude":34.0565158225,"Longitude":-118.273619757,"X":-3613678.0387249803,"Y":4751814.5114929387,"Distance from center":3407.3450074798,"Total Restaurants":null},{"level_0":130,"index":130,"Address":"1140 Cornwell St, Los Angeles, CA 90033","Latitude":34.0565436755,"Longitude":-118.20407453,"X":-3606778.0387249803,"Y":4748177.2047970444,"Distance from center":4479.9553569205,"Total Restaurants":null},{"level_0":271,"index":271,"Address":"110 W 8th St, Los Angeles, CA 90057","Latitude":34.0568042242,"Longitude":-118.2828759084,"X":-3614578.0387249803,"Y":4752334.1267352095,"Distance from center":4439.5945760843,"Total Restaurants":null},{"level_0":148,"index":148,"Address":"1720 Pomeroy Ave, Los Angeles, CA 90033","Latitude":34.0568400179,"Longitude":-118.2133360167,"X":-3607678.0387249803,"Y":4748696.8200393151,"Distance from center":3459.7687784013,"Total Restaurants":null},{"level_0":288,"index":288,"Address":"821 Vermont Ave, Los Angeles, CA 90005","Latitude":34.0570915455,"Longitude":-118.2921313969,"X":-3615478.0387249803,"Y":4752853.7419774802,"Distance from center":5474.4862772682,"Total Restaurants":null},{"level_0":166,"index":166,"Address":"N Mission Rd &, Richmond St, Los Angeles, CA 90033","Latitude":34.0571352789,"Longitude":-118.2225968431,"X":-3608578.0387249803,"Y":4749216.4352815859,"Distance from center":2455.6058315618,"Total Restaurants":null},{"level_0":184,"index":184,"Address":"921 N Vignes St, Los Angeles, CA 90012","Latitude":34.0574294585,"Longitude":-118.231857009,"X":-3609478.0387249803,"Y":4749736.0505238567,"Distance from center":1500.0,"Total Restaurants":null},{"level_0":202,"index":202,"Address":"555 N Spring St, Los Angeles, CA 90012","Latitude":34.0577225569,"Longitude":-118.2411165138,"X":-3610378.0387249803,"Y":4750255.6657661274,"Distance from center":793.7253933194,"Total Restaurants":null},{"level_0":220,"index":220,"Address":"801 W 1st St, Los Angeles, CA 90012","Latitude":34.0580145742,"Longitude":-118.2503753572,"X":-3611278.0387249803,"Y":4750775.2810083982,"Distance from center":1081.6653826394,"Total Restaurants":null},{"level_0":238,"index":238,"Address":"1306 Miramar St, Los Angeles, CA 90026","Latitude":34.0583055106,"Longitude":-118.259633539,"X":-3612178.0387249803,"Y":4751294.8962506689,"Distance from center":1967.2315572908,"Total Restaurants":null},{"level_0":255,"index":255,"Address":"440 S Union Ave, Los Angeles, CA 90017","Latitude":34.0585953663,"Longitude":-118.2688910586,"X":-3613078.0387249803,"Y":4751814.5114929387,"Distance from center":2954.6573405384,"Total Restaurants":null},{"level_0":131,"index":131,"Address":"2466 Lancaster Ave, Los Angeles, CA 90033","Latitude":34.0586205291,"Longitude":-118.1993404104,"X":-3606178.0387249803,"Y":4748177.2047970444,"Distance from center":5046.7811523783,"Total Restaurants":null},{"level_0":272,"index":272,"Address":"655 S Alvarado St, Los Angeles, CA 90057","Latitude":34.0588841413,"Longitude":-118.2781479158,"X":-3613978.0387249803,"Y":4752334.1267352095,"Distance from center":3968.6269665966,"Total Restaurants":null},{"level_0":149,"index":149,"Address":"2010 Zonal Ave, Los Angeles, CA 90033","Latitude":34.0589172459,"Longitude":-118.2086026019,"X":-3607078.0387249803,"Y":4748696.8200393151,"Distance from center":4036.0872141222,"Total Restaurants":null},{"level_0":289,"index":289,"Address":"2925 Leeward Ave, Los Angeles, CA 90005","Latitude":34.0591718359,"Longitude":-118.2874041102,"X":-3614878.0387249803,"Y":4752853.7419774802,"Distance from center":4992.9950931277,"Total Restaurants":null},{"level_0":167,"index":167,"Address":"1011 Richmond St, Los Angeles, CA 90033","Latitude":34.0592128811,"Longitude":-118.2178641333,"X":-3607978.0387249803,"Y":4749216.4352815859,"Distance from center":3044.6674695277,"Total Restaurants":null},{"level_0":185,"index":185,"Address":"490 Bauchet St, Los Angeles, CA 90012","Latitude":34.0595074348,"Longitude":-118.2271250041,"X":-3608878.0387249803,"Y":4749736.0505238567,"Distance from center":2100.0,"Total Restaurants":null},{"level_0":203,"index":203,"Address":"Alameda St at Ord St and Main St, Los Angeles, CA 90012","Latitude":34.0598009072,"Longitude":-118.2363852142,"X":-3609778.0387249803,"Y":4750255.6657661274,"Distance from center":1307.6696830622,"Total Restaurants":null},{"level_0":221,"index":221,"Address":"325 N Bunker Hill Ave., Los Angeles, CA 90012","Latitude":34.0600932984,"Longitude":-118.245644763,"X":-3610678.0387249803,"Y":4750775.2810083982,"Distance from center":1081.6653826394,"Total Restaurants":null},{"level_0":239,"index":239,"Address":"1200 Colton St, Los Angeles, CA 90026","Latitude":34.0603846086,"Longitude":-118.2549036502,"X":-3611578.0387249803,"Y":4751294.8962506689,"Distance from center":1670.3293088493,"Total Restaurants":null},{"level_0":256,"index":256,"Address":"214 Loma Dr, Los Angeles, CA 90026","Latitude":34.0606748378,"Longitude":-118.2641618755,"X":-3612478.0387249803,"Y":4751814.5114929387,"Distance from center":2563.2011235948,"Total Restaurants":null},{"level_0":132,"index":132,"Address":"1592 Murchison St, Los Angeles, CA 90033","Latitude":34.0606973097,"Longitude":-118.1946058061,"X":-3605578.0387249803,"Y":4748177.2047970444,"Distance from center":5620.4981985586,"Total Restaurants":null},{"level_0":273,"index":273,"Address":"420s S Alvarado St, Los Angeles, CA 90057","Latitude":34.0609639863,"Longitude":-118.2734194384,"X":-3613378.0387249803,"Y":4752334.1267352095,"Distance from center":3536.9478367651,"Total Restaurants":null},{"level_0":150,"index":150,"Address":"1355 San Pablo St, Los Angeles, CA 90033","Latitude":34.060994401,"Longitude":-118.2038687023,"X":-3606478.0387249803,"Y":4748696.8200393151,"Distance from center":4618.4412955022,"Total Restaurants":null},{"level_0":290,"index":290,"Address":"2701 Wilshire Blvd #100, Los Angeles, CA 90057","Latitude":34.0612520542,"Longitude":-118.2826763387,"X":-3614278.0387249803,"Y":4752853.7419774802,"Distance from center":4539.8237851262,"Total Restaurants":null},{"level_0":168,"index":168,"Address":"1139 N Mission Rd, Los Angeles, CA 90033","Latitude":34.0612904105,"Longitude":-118.2131309386,"X":-3607378.0387249803,"Y":4749216.4352815859,"Distance from center":3637.3066958947,"Total Restaurants":null},{"level_0":305,"index":305,"Address":"3200 Wilshire Blvd #105, Los Angeles, CA 90010","Latitude":34.0615390416,"Longitude":-118.2919325759,"X":-3615178.0387249803,"Y":4753373.357219751,"Distance from center":5556.0777532354,"Total Restaurants":null},{"level_0":186,"index":186,"Address":"750 Lamar St, Los Angeles, CA 90031","Latitude":34.0615853385,"Longitude":-118.2223925145,"X":-3608278.0387249803,"Y":4749736.0505238567,"Distance from center":2700.0,"Total Restaurants":null},{"level_0":204,"index":204,"Address":"203 E College St, Los Angeles, CA 90012","Latitude":34.0618791849,"Longitude":-118.2316534297,"X":-3609178.0387249803,"Y":4750255.6657661274,"Distance from center":1873.4993995195,"Total Restaurants":null},{"level_0":222,"index":222,"Address":"736 Yale St, Los Angeles, CA 90012","Latitude":34.0621719501,"Longitude":-118.2409136838,"X":-3610078.0387249803,"Y":4750775.2810083982,"Distance from center":1374.7727084869,"Total Restaurants":null},{"level_0":240,"index":240,"Address":"1061 W Temple St, Los Angeles, CA 90012","Latitude":34.0624636341,"Longitude":-118.2501732765,"X":-3610978.0387249803,"Y":4751294.8962506689,"Distance from center":1558.8457268123,"Total Restaurants":null},{"level_0":257,"index":257,"Address":"134 Glendale Blvd, Los Angeles, CA 90026","Latitude":34.062754237,"Longitude":-118.2594322074,"X":-3611878.0387249803,"Y":4751814.5114929387,"Distance from center":2264.9503305807,"Total Restaurants":null},{"level_0":274,"index":274,"Address":"1818 Miramar St, Los Angeles, CA 90057","Latitude":34.0630437591,"Longitude":-118.2686904761,"X":-3612778.0387249803,"Y":4752334.1267352095,"Distance from center":3160.6961258554,"Total Restaurants":null},{"level_0":151,"index":151,"Address":"Institute for Genetic Medicine, 2250 Alcazar St, Los Angeles, CA 90089","Latitude":34.0630714832,"Longitude":-118.1991343179,"X":-3605878.0387249803,"Y":4748696.8200393151,"Distance from center":5204.8054718693,"Total Restaurants":null},{"level_0":291,"index":291,"Address":"2505 Ocean View Ave, Los Angeles, CA 90057","Latitude":34.0633322004,"Longitude":-118.2779480822,"X":-3613678.0387249803,"Y":4752853.7419774802,"Distance from center":4124.31812546,"Total Restaurants":null},{"level_0":169,"index":169,"Address":"1358 Eastlake Ave, Los Angeles, CA 90033","Latitude":34.0633678671,"Longitude":-118.208397259,"X":-3606778.0387249803,"Y":4749216.4352815859,"Distance from center":4232.0207938998,"Total Restaurants":null},{"level_0":306,"index":306,"Address":"6th \/ Virgil, Los Angeles, CA 90010","Latitude":34.0636195611,"Longitude":-118.2872050254,"X":-3614578.0387249803,"Y":4753373.357219751,"Distance from center":5117.6166327694,"Total Restaurants":null},{"level_0":187,"index":187,"Address":"672 S Avenue 21 #8, Los Angeles, CA 90031","Latitude":34.0636631694,"Longitude":-118.21765954,"X":-3607678.0387249803,"Y":4749736.0505238567,"Distance from center":3300.0,"Total Restaurants":null},{"level_0":205,"index":205,"Address":"220 Leroy St, Los Angeles, CA 90012","Latitude":34.06395739,"Longitude":-118.2269211604,"X":-3608578.0387249803,"Y":4750255.6657661274,"Distance from center":2455.6058315618,"Total Restaurants":null},{"level_0":223,"index":223,"Address":"1231 N Spring St, Los Angeles, CA 90012","Latitude":34.0642505292,"Longitude":-118.2361821198,"X":-3609478.0387249803,"Y":4750775.2810083982,"Distance from center":1824.8287590896,"Total Restaurants":null},{"level_0":241,"index":241,"Address":"35 Alpine St, Los Angeles, CA 90012","Latitude":34.0645425871,"Longitude":-118.2454424179,"X":-3610378.0387249803,"Y":4751294.8962506689,"Distance from center":1670.3293088493,"Total Restaurants":null},{"level_0":258,"index":258,"Address":"407 N Bixel St, Los Angeles, CA 90026","Latitude":34.0648335638,"Longitude":-118.2547020544,"X":-3611278.0387249803,"Y":4751814.5114929387,"Distance from center":2099.9999999994,"Total Restaurants":null},{"level_0":275,"index":275,"Address":"1633 Rockwood St, Los Angeles, CA 90026","Latitude":34.0651234595,"Longitude":-118.2639610288,"X":-3612178.0387249803,"Y":4752334.1267352095,"Distance from center":2861.8176042504,"Total Restaurants":null},{"level_0":152,"index":152,"Address":"4121 E Valley Blvd, Los Angeles, CA 90032","Latitude":34.0651484923,"Longitude":-118.1943994485,"X":-3605278.0387249803,"Y":4748696.8200393151,"Distance from center":5793.9623747484,"Total Restaurants":null},{"level_0":292,"index":292,"Address":"2218 Valley St, Los Angeles, CA 90057","Latitude":34.0654122744,"Longitude":-118.2732193408,"X":-3613078.0387249803,"Y":4752853.7419774802,"Distance from center":3758.9892258422,"Total Restaurants":null},{"level_0":170,"index":170,"Address":"3Q8W+5G Los Angeles, CA","Latitude":34.0654452508,"Longitude":-118.2036630946,"X":-3606178.0387249803,"Y":4749216.4352815859,"Distance from center":4828.0430818293,"Total Restaurants":null},{"level_0":307,"index":307,"Address":"401 S La Fayette Park Pl, Los Angeles, CA 90057","Latitude":34.0657000085,"Longitude":-118.28247699,"X":-3613978.0387249803,"Y":4753373.357219751,"Distance from center":4714.8700936503,"Total Restaurants":null},{"level_0":188,"index":188,"Address":"2730 N Main St, Los Angeles, CA 90031","Latitude":34.0657409275,"Longitude":-118.2129260806,"X":-3607078.0387249803,"Y":4749736.0505238567,"Distance from center":3900.0,"Total Restaurants":null},{"level_0":320,"index":320,"Address":"3566 W 3rd St, Los Angeles, CA 90020","Latitude":34.065986662,"Longitude":-118.291733976,"X":-3614878.0387249803,"Y":4753892.9724620217,"Distance from center":5699.9999999998,"Total Restaurants":null},{"level_0":206,"index":206,"Address":"620 Lamar St, Los Angeles, CA 90031","Latitude":34.0660355224,"Longitude":-118.2221884061,"X":-3607978.0387249803,"Y":4750255.6657661274,"Distance from center":3044.6674695277,"Total Restaurants":null},{"level_0":224,"index":224,"Address":"1425 Naud St, Los Angeles, CA 90012","Latitude":34.0663290357,"Longitude":-118.2314500708,"X":-3608878.0387249803,"Y":4750775.2810083982,"Distance from center":2343.0749027721,"Total Restaurants":null},{"level_0":242,"index":242,"Address":"W Historic Rte 66, Los Angeles, CA 90012","Latitude":34.0666214676,"Longitude":-118.2407110744,"X":-3609778.0387249803,"Y":4751294.8962506689,"Distance from center":1967.2315572908,"Total Restaurants":null},{"level_0":259,"index":259,"Address":"1150 Sunset Blvd, Los Angeles, CA 90012","Latitude":34.0669128182,"Longitude":-118.2499714164,"X":-3610678.0387249803,"Y":4751814.5114929387,"Distance from center":2099.9999999994,"Total Restaurants":null},{"level_0":276,"index":276,"Address":"362 Laveta Terrace, Los Angeles, CA 90026","Latitude":34.0672030876,"Longitude":-118.2592310965,"X":-3611578.0387249803,"Y":4752334.1267352095,"Distance from center":2666.4583251942,"Total Restaurants":null},{"level_0":293,"index":293,"Address":"212 N Mountain View Ave, Los Angeles, CA 90026","Latitude":34.0674922761,"Longitude":-118.2684901143,"X":-3612478.0387249803,"Y":4752853.7419774802,"Distance from center":3459.7687784009,"Total Restaurants":null},{"level_0":171,"index":171,"Address":"3R92+2C Los Angeles, CA","Latitude":34.0675225616,"Longitude":-118.1989284452,"X":-3605578.0387249803,"Y":4749216.4352815859,"Distance from center":5424.9423960075,"Total Restaurants":null},{"level_0":308,"index":308,"Address":"216 S Rampart Blvd, Los Angeles, CA 90057","Latitude":34.0677803837,"Longitude":-118.2777484695,"X":-3613378.0387249803,"Y":4753373.357219751,"Distance from center":4357.7517138999,"Total Restaurants":null},{"level_0":189,"index":189,"Address":"2001 Eastlake Ave, Los Angeles, CA 90031","Latitude":34.0678186127,"Longitude":-118.2081921362,"X":-3606478.0387249803,"Y":4749736.0505238567,"Distance from center":4500.0,"Total Restaurants":null},{"level_0":321,"index":321,"Address":"333 S Virgil Ave, Los Angeles, CA 90020","Latitude":34.0680674105,"Longitude":-118.2870061617,"X":-3614278.0387249803,"Y":4753892.9724620217,"Distance from center":5307.5418038861,"Total Restaurants":null},{"level_0":207,"index":207,"Address":"2029 Darwin Ave, Los Angeles, CA 90031","Latitude":34.068113582,"Longitude":-118.2174551669,"X":-3607378.0387249803,"Y":4750255.6657661274,"Distance from center":3637.3066958947,"Total Restaurants":null},{"level_0":225,"index":225,"Address":"198 Wilhardt St, Los Angeles, CA 90012","Latitude":34.0684074695,"Longitude":-118.2267175369,"X":-3608278.0387249803,"Y":4750775.2810083982,"Distance from center":2893.095228298,"Total Restaurants":null},{"level_0":243,"index":243,"Address":"445 Cottage Home St, Los Angeles, CA 90012","Latitude":34.0687002755,"Longitude":-118.2359792459,"X":-3609178.0387249803,"Y":4751294.8962506689,"Distance from center":2381.1761799583,"Total Restaurants":null},{"level_0":260,"index":260,"Address":"1013 Figueroa Terrace, Los Angeles, CA 90012","Latitude":34.0689920001,"Longitude":-118.2452402934,"X":-3610078.0387249803,"Y":4751814.5114929387,"Distance from center":2264.9503305807,"Total Restaurants":null},{"level_0":277,"index":277,"Address":"1340 Carroll Ave, Los Angeles, CA 90026","Latitude":34.0692826433,"Longitude":-118.2545006792,"X":-3610978.0387249803,"Y":4752334.1267352095,"Distance from center":2598.0762113528,"Total Restaurants":null},{"level_0":294,"index":294,"Address":"1733 W Temple St, Los Angeles, CA 90026","Latitude":34.0695722055,"Longitude":-118.2637604029,"X":-3611878.0387249803,"Y":4752853.7419774802,"Distance from center":3244.9961479172,"Total Restaurants":null},{"level_0":309,"index":309,"Address":"201 N Park View St, Los Angeles, CA 90026","Latitude":34.0698606866,"Longitude":-118.273019464,"X":-3612778.0387249803,"Y":4753373.357219751,"Distance from center":4058.3247775403,"Total Restaurants":null},{"level_0":190,"index":190,"Address":"2126 Alta St, Los Angeles, CA 90031","Latitude":34.069896225,"Longitude":-118.2034577069,"X":-3605878.0387249803,"Y":4749736.0505238567,"Distance from center":5100.0,"Total Restaurants":null},{"level_0":322,"index":322,"Address":"153 S Reno St, Los Angeles, CA 90057","Latitude":34.070148087,"Longitude":-118.2822778623,"X":-3613678.0387249803,"Y":4753892.9724620217,"Distance from center":4956.8134925573,"Total Restaurants":null},{"level_0":208,"index":208,"Address":"2210 Sichel St, Los Angeles, CA 90031","Latitude":34.0701915687,"Longitude":-118.2127214427,"X":-3606778.0387249803,"Y":4750255.6657661274,"Distance from center":4232.0207938998,"Total Restaurants":null},{"level_0":334,"index":334,"Address":"3480 W 2nd St, Los Angeles, CA 90004","Latitude":34.0704344066,"Longitude":-118.2915355973,"X":-3614578.0387249803,"Y":4754412.5877042925,"Distance from center":5901.6946718717,"Total Restaurants":null},{"level_0":226,"index":226,"Address":"241 S Ave 18, Los Angeles, CA 90031","Latitude":34.0704858306,"Longitude":-118.221984518,"X":-3607678.0387249803,"Y":4750775.2810083982,"Distance from center":3459.7687784013,"Total Restaurants":null},{"level_0":244,"index":244,"Address":"1349 N Broadway, Los Angeles, CA 90012","Latitude":34.0707790108,"Longitude":-118.2312469323,"X":-3608578.0387249803,"Y":4751294.8962506689,"Distance from center":2861.817604251,"Total Restaurants":null},{"level_0":261,"index":261,"Address":"3QC5+CQ Los Angeles, CA","Latitude":34.0710711094,"Longitude":-118.2405086854,"X":-3609478.0387249803,"Y":4751814.5114929387,"Distance from center":2563.2011235948,"Total Restaurants":null},{"level_0":278,"index":278,"Address":"1239 1\/2 Innes Ave, Los Angeles, CA 90026","Latitude":34.0713621266,"Longitude":-118.2497697769,"X":-3610378.0387249803,"Y":4752334.1267352095,"Distance from center":2666.4583251942,"Total Restaurants":null},{"level_0":295,"index":295,"Address":"1086 1\/2 W Kensington Rd, Los Angeles, CA 90026","Latitude":34.0716520625,"Longitude":-118.2590302064,"X":-3611278.0387249803,"Y":4752853.7419774802,"Distance from center":3132.0919526728,"Total Restaurants":null},{"level_0":310,"index":310,"Address":"446 N Lake St, Los Angeles, CA 90026","Latitude":34.0719409173,"Longitude":-118.2682899735,"X":-3612178.0387249803,"Y":4753373.357219751,"Distance from center":3830.1436004408,"Total Restaurants":null},{"level_0":191,"index":191,"Address":"2250 Parkside Ave # 101, Los Angeles, CA 90031","Latitude":34.0719737644,"Longitude":-118.1987227926,"X":-3605278.0387249803,"Y":4749736.0505238567,"Distance from center":5700.0,"Total Restaurants":null},{"level_0":323,"index":323,"Address":"2734 Hyans St, Los Angeles, CA 90026","Latitude":34.0722286912,"Longitude":-118.2775490778,"X":-3613078.0387249803,"Y":4753892.9724620217,"Distance from center":4657.2524088778,"Total Restaurants":null},{"level_0":209,"index":209,"Address":"2309 Eastlake Ave, Los Angeles, CA 90031","Latitude":34.0722694826,"Longitude":-118.2079872335,"X":-3606178.0387249803,"Y":4750255.6657661274,"Distance from center":4828.0430818293,"Total Restaurants":null},{"level_0":335,"index":335,"Address":"127 S Virgil Ave, Los Angeles, CA 90004","Latitude":34.0725153842,"Longitude":-118.2868075191,"X":-3613978.0387249803,"Y":4754412.5877042925,"Distance from center":5556.0777532355,"Total Restaurants":null},{"level_0":227,"index":227,"Address":"237 S Ave 22, Los Angeles, CA 90031","Latitude":34.0725641189,"Longitude":-118.217251014,"X":-3607078.0387249803,"Y":4750775.2810083982,"Distance from center":4036.0872141222,"Total Restaurants":null},{"level_0":245,"index":245,"Address":"1800 Baker St, Los Angeles, CA 90012","Latitude":34.0728576733,"Longitude":-118.2265141338,"X":-3607978.0387249803,"Y":4751294.8962506689,"Distance from center":3380.8283008755,"Total Restaurants":null},{"level_0":262,"index":262,"Address":"3QF7+7M Los Angeles, CA","Latitude":34.0731501461,"Longitude":-118.2357765924,"X":-3608878.0387249803,"Y":4751814.5114929387,"Distance from center":2954.6573405384,"Total Restaurants":null},{"level_0":279,"index":279,"Address":"3QF3+9X Los Angeles, CA","Latitude":34.0734415373,"Longitude":-118.2450383895,"X":-3609778.0387249803,"Y":4752334.1267352095,"Distance from center":2861.8176042504,"Total Restaurants":null},{"level_0":296,"index":296,"Address":"922 W Kensington Rd, Los Angeles, CA 90026","Latitude":34.0737318471,"Longitude":-118.2542995248,"X":-3610678.0387249803,"Y":4752853.7419774802,"Distance from center":3132.0919526728,"Total Restaurants":null},{"level_0":311,"index":311,"Address":"1757 Kent St, Los Angeles, CA 90026","Latitude":34.0740210757,"Longitude":-118.2635599978,"X":-3611578.0387249803,"Y":4753373.357219751,"Distance from center":3686.4617182331,"Total Restaurants":null},{"level_0":324,"index":324,"Address":"2512 London St, Los Angeles, CA 90026","Latitude":34.0743092231,"Longitude":-118.2728198083,"X":-3612478.0387249803,"Y":4753892.9724620217,"Distance from center":4419.2759587967,"Total Restaurants":null},{"level_0":210,"index":210,"Address":"2453 Lincoln Park Ave, Los Angeles, CA 90031","Latitude":34.0743473235,"Longitude":-118.2032525392,"X":-3605578.0387249803,"Y":4750255.6657661274,"Distance from center":5424.9423960075,"Total Restaurants":null},{"level_0":336,"index":336,"Address":"223 N Dillon St, Los Angeles, CA 90026","Latitude":34.0745962897,"Longitude":-118.2820789557,"X":-3613378.0387249803,"Y":4754412.5877042925,"Distance from center":5256.4246403805,"Total Restaurants":null},{"level_0":228,"index":228,"Address":"2424 Sichel St, Los Angeles, CA 90031","Latitude":34.0746423343,"Longitude":-118.212517025,"X":-3606478.0387249803,"Y":4750775.2810083982,"Distance from center":4618.4412955022,"Total Restaurants":null},{"level_0":246,"index":246,"Address":"37 N San Fernando Rd, Los Angeles, CA 90031","Latitude":34.0749362631,"Longitude":-118.2217808501,"X":-3607378.0387249803,"Y":4751294.8962506689,"Distance from center":3923.0090491867,"Total Restaurants":null},{"level_0":263,"index":263,"Address":"540 Casanova St, Los Angeles, CA 90012","Latitude":34.0752291101,"Longitude":-118.2310440143,"X":-3608278.0387249803,"Y":4751814.5114929387,"Distance from center":3407.3450074798,"Total Restaurants":null},{"level_0":280,"index":280,"Address":"3QG5+6V Los Angeles, CA","Latitude":34.0755208754,"Longitude":-118.240306517,"X":-3609178.0387249803,"Y":4752334.1267352095,"Distance from center":3160.6961258554,"Total Restaurants":null},{"level_0":297,"index":297,"Address":"1360 Elysian Park Dr, Los Angeles, CA 90026","Latitude":34.0758115592,"Longitude":-118.2495683581,"X":-3610078.0387249803,"Y":4752853.7419774802,"Distance from center":3244.9961479172,"Total Restaurants":null},{"level_0":312,"index":312,"Address":"1130 Logan St, Los Angeles, CA 90026","Latitude":34.0761011616,"Longitude":-118.258829537,"X":-3610978.0387249803,"Y":4753373.357219751,"Distance from center":3637.3066958943,"Total Restaurants":null},{"level_0":325,"index":325,"Address":"829 Waterloo St, Los Angeles, CA 90026","Latitude":34.0763896828,"Longitude":-118.2680900535,"X":-3611878.0387249803,"Y":4753892.9724620217,"Distance from center":4253.2340636271,"Total Restaurants":null},{"level_0":337,"index":337,"Address":"2958 London St, Los Angeles, CA 90026","Latitude":34.0766771229,"Longitude":-118.2773499072,"X":-3612778.0387249803,"Y":4754412.5877042925,"Distance from center":5010.9879265469,"Total Restaurants":null},{"level_0":229,"index":229,"Address":"2500 Eastlake Ave, Los Angeles, CA 90031","Latitude":34.0767204768,"Longitude":-118.2077825509,"X":-3605878.0387249803,"Y":4750775.2810083982,"Distance from center":5204.8054718693,"Total Restaurants":null},{"level_0":347,"index":347,"Address":"3553 W Temple St, Los Angeles, CA 90004","Latitude":34.076963482,"Longitude":-118.2866090977,"X":-3613678.0387249803,"Y":4754932.2029465633,"Distance from center":5855.7663887829,"Total Restaurants":null},{"level_0":247,"index":247,"Address":"128 N Ave 25, Los Angeles, CA 90031","Latitude":34.0770147801,"Longitude":-118.2170470814,"X":-3606778.0387249803,"Y":4751294.8962506689,"Distance from center":4479.9553569205,"Total Restaurants":null},{"level_0":264,"index":264,"Address":"421 N Ave 19, Los Angeles, CA 90031","Latitude":34.0773080014,"Longitude":-118.226310951,"X":-3607678.0387249803,"Y":4751814.5114929387,"Distance from center":3899.9999999997,"Total Restaurants":null},{"level_0":281,"index":281,"Address":"1820 Bouett St, Los Angeles, CA 90012","Latitude":34.0776001409,"Longitude":-118.2355741594,"X":-3608578.0387249803,"Y":4752334.1267352095,"Distance from center":3536.9478367651,"Total Restaurants":null},{"level_0":298,"index":298,"Address":"1616 N Boylston St, Los Angeles, CA 90012","Latitude":34.0778911988,"Longitude":-118.2448367062,"X":-3609478.0387249803,"Y":4752853.7419774802,"Distance from center":3459.7687784009,"Total Restaurants":null},{"level_0":313,"index":313,"Address":"1422 Laveta Terrace, Los Angeles, CA 90026","Latitude":34.0781811751,"Longitude":-118.2540985911,"X":-3610378.0387249803,"Y":4753373.357219751,"Distance from center":3686.4617182331,"Total Restaurants":null},{"level_0":326,"index":326,"Address":"1201 N Alvarado St, Los Angeles, CA 90026","Latitude":34.0784700701,"Longitude":-118.2633598136,"X":-3611278.0387249803,"Y":4753892.9724620217,"Distance from center":4167.7331968347,"Total Restaurants":null},{"level_0":338,"index":338,"Address":"837 N Benton Way, Los Angeles, CA 90026","Latitude":34.0787578839,"Longitude":-118.2726203735,"X":-3612178.0387249803,"Y":4754412.5877042925,"Distance from center":4828.0430818292,"Total Restaurants":null},{"level_0":230,"index":230,"Address":"2801 Lincoln Park Ave, Los Angeles, CA 90031","Latitude":34.0787985463,"Longitude":-118.2030475917,"X":-3605278.0387249803,"Y":4750775.2810083982,"Distance from center":5793.9623747484,"Total Restaurants":null},{"level_0":348,"index":348,"Address":"3412 Bellevue Ave, Los Angeles, CA 90026","Latitude":34.0790446165,"Longitude":-118.2818802703,"X":-3613078.0387249803,"Y":4754932.2029465633,"Distance from center":5604.4625076808,"Total Restaurants":null},{"level_0":248,"index":248,"Address":"326 E Ave 28, Los Angeles, CA 90031","Latitude":34.0790932242,"Longitude":-118.2123128275,"X":-3606178.0387249803,"Y":4751294.8962506689,"Distance from center":5046.7811523783,"Total Restaurants":null},{"level_0":265,"index":265,"Address":"2131 Humboldt St, Los Angeles, CA 90031","Latitude":34.0793868199,"Longitude":-118.2215774026,"X":-3607078.0387249803,"Y":4751814.5114929387,"Distance from center":4419.2759587966,"Total Restaurants":null},{"level_0":282,"index":282,"Address":"Elysian Park Reservoir Grand View Dr., Elysian Reservoir, Los Angeles, CA 90012, Los Angeles, CA 90012","Latitude":34.0796793337,"Longitude":-118.2308413166,"X":-3607978.0387249803,"Y":4752334.1267352095,"Distance from center":3968.6269665966,"Total Restaurants":null},{"level_0":299,"index":299,"Address":"1000 Academy Rd, Los Angeles, CA 90012","Latitude":34.0799707657,"Longitude":-118.2401045692,"X":-3608878.0387249803,"Y":4752853.7419774802,"Distance from center":3758.9892258422,"Total Restaurants":null},{"level_0":314,"index":314,"Address":"1351 Academy Rd, Los Angeles, CA 90012","Latitude":34.0802611161,"Longitude":-118.24936716,"X":-3609778.0387249803,"Y":4753373.357219751,"Distance from center":3830.1436004408,"Total Restaurants":null},{"level_0":327,"index":327,"Address":"1446 Lake Shore Ave, Los Angeles, CA 90026","Latitude":34.080550385,"Longitude":-118.2586290885,"X":-3610678.0387249803,"Y":4753892.9724620217,"Distance from center":4167.7331968347,"Total Restaurants":null},{"level_0":339,"index":339,"Address":"1154 N Coronado St, Los Angeles, CA 90026","Latitude":34.0808385725,"Longitude":-118.2678903545,"X":-3611578.0387249803,"Y":4754412.5877042925,"Distance from center":4714.8700936504,"Total Restaurants":null},{"level_0":349,"index":349,"Address":"748 N Dillon St, Los Angeles, CA 90026","Latitude":34.0811256788,"Longitude":-118.2771509576,"X":-3612478.0387249803,"Y":4754932.2029465633,"Distance from center":5408.3269131959,"Total Restaurants":null},{"level_0":249,"index":249,"Address":"514 E Ave 28, Los Angeles, CA 90031","Latitude":34.0811715953,"Longitude":-118.2075780885,"X":-3605578.0387249803,"Y":4751294.8962506689,"Distance from center":5620.4981985586,"Total Restaurants":null},{"level_0":266,"index":266,"Address":"3005 Humboldt St, Los Angeles, CA 90031","Latitude":34.0814655656,"Longitude":-118.216843369,"X":-3606478.0387249803,"Y":4751814.5114929387,"Distance from center":4956.8134925573,"Total Restaurants":null},{"level_0":283,"index":283,"Address":"501505 N San Fernando Rd, Los Angeles, CA 90065","Latitude":34.0817584537,"Longitude":-118.2261079887,"X":-3607378.0387249803,"Y":4752334.1267352095,"Distance from center":4439.5945760843,"Total Restaurants":null},{"level_0":300,"index":300,"Address":"Elysian Park Section 9, Solano Canyon Dr, Los Angeles, CA 90012","Latitude":34.08205026,"Longitude":-118.235371947,"X":-3608278.0387249803,"Y":4752853.7419774802,"Distance from center":4124.31812546,"Total Restaurants":null},{"level_0":315,"index":315,"Address":"3QJ4+W4 Los Angeles, CA","Latitude":34.0823409845,"Longitude":-118.2446352436,"X":-3609178.0387249803,"Y":4753373.357219751,"Distance from center":4058.3247775403,"Total Restaurants":null},{"level_0":328,"index":328,"Address":"1644 N Bancroft St, Los Angeles, CA 90026","Latitude":34.0826306274,"Longitude":-118.2538978782,"X":-3610078.0387249803,"Y":4753892.9724620217,"Distance from center":4253.2340636271,"Total Restaurants":null},{"level_0":340,"index":340,"Address":"2233 Scott Ave, Los Angeles, CA 90026","Latitude":34.0829191887,"Longitude":-118.2631598503,"X":-3610978.0387249803,"Y":4754412.5877042925,"Distance from center":4676.5371804358,"Total Restaurants":null},{"level_0":350,"index":350,"Address":"1221 Silver Lake Blvd, Los Angeles, CA 90026","Latitude":34.0832066688,"Longitude":-118.2724211597,"X":-3611878.0387249803,"Y":4754932.2029465633,"Distance from center":5273.518749374,"Total Restaurants":null},{"level_0":357,"index":357,"Address":"3607 Marathon St, Los Angeles, CA 90026","Latitude":34.0834930676,"Longitude":-118.2816818059,"X":-3612778.0387249803,"Y":4755451.818188834,"Distance from center":5992.4953066315,"Total Restaurants":null},{"level_0":267,"index":267,"Address":"3317 Griffin Ave, Los Angeles, CA 90031","Latitude":34.0835442383,"Longitude":-118.2121088503,"X":-3605878.0387249803,"Y":4751814.5114929387,"Distance from center":5507.2679252055,"Total Restaurants":null},{"level_0":284,"index":284,"Address":"2616 N Figueroa St, Los Angeles, CA 90065","Latitude":34.083837501,"Longitude":-118.2213741755,"X":-3606778.0387249803,"Y":4752334.1267352095,"Distance from center":4938.623289946,"Total Restaurants":null},{"level_0":301,"index":301,"Address":"Frogtown Trail, Grand View Dr, Los Angeles, CA 90031","Latitude":34.0841296816,"Longitude":-118.2306388395,"X":-3607678.0387249803,"Y":4752853.7419774802,"Distance from center":4539.8237851262,"Total Restaurants":null},{"level_0":316,"index":316,"Address":"3QM6+Q2 Los Angeles, CA","Latitude":34.0844207803,"Longitude":-118.239902842,"X":-3608578.0387249803,"Y":4753373.357219751,"Distance from center":4357.7517138999,"Total Restaurants":null},{"level_0":329,"index":329,"Address":"1885 Park Dr, Los Angeles, CA 90026","Latitude":34.0847107972,"Longitude":-118.2491661826,"X":-3609478.0387249803,"Y":4753892.9724620217,"Distance from center":4419.2759587967,"Total Restaurants":null},{"level_0":341,"index":341,"Address":"1946 Effie St, Los Angeles, CA 90026","Latitude":34.0849997325,"Longitude":-118.2584288609,"X":-3610378.0387249803,"Y":4754412.5877042925,"Distance from center":4714.8700936504,"Total Restaurants":null},{"level_0":351,"index":351,"Address":"1503 N Benton Way, Los Angeles, CA 90026","Latitude":34.0852875864,"Longitude":-118.2676908765,"X":-3611278.0387249803,"Y":4754932.2029465633,"Distance from center":5204.8054718692,"Total Restaurants":null},{"level_0":358,"index":358,"Address":"1302 Micheltorena St, Los Angeles, CA 90026","Latitude":34.0855743589,"Longitude":-118.2769522291,"X":-3612178.0387249803,"Y":4755451.818188834,"Distance from center":5840.3767001796,"Total Restaurants":null},{"level_0":285,"index":285,"Address":"3408 Arroyo Seco Ave, Los Angeles, CA 90065","Latitude":34.0859164753,"Longitude":-118.216639877,"X":-3606178.0387249803,"Y":4752334.1267352095,"Distance from center":5458.0216195978,"Total Restaurants":null},{"level_0":302,"index":302,"Address":"River Garden Park, 570 W Ave 26, Los Angeles, CA 90065","Latitude":34.0862090303,"Longitude":-118.2259052468,"X":-3607078.0387249803,"Y":4752853.7419774802,"Distance from center":4992.9950931277,"Total Restaurants":null},{"level_0":317,"index":317,"Address":"3QP7+JW Los Angeles, CA","Latitude":34.0865005033,"Longitude":-118.2351699551,"X":-3607978.0387249803,"Y":4753373.357219751,"Distance from center":4714.8700936503,"Total Restaurants":null},{"level_0":330,"index":330,"Address":"1025 Elysian Park Dr, Los Angeles, CA 90012","Latitude":34.0867908945,"Longitude":-118.2444340017,"X":-3608878.0387249803,"Y":4753892.9724620217,"Distance from center":4657.2524088778,"Total Restaurants":null},{"level_0":342,"index":342,"Address":"1870-1800, Avalon St, Los Angeles, CA 90026","Latitude":34.0870802038,"Longitude":-118.2536973861,"X":-3609778.0387249803,"Y":4754412.5877042925,"Distance from center":4828.0430818292,"Total Restaurants":null},{"level_0":352,"index":352,"Address":"1701 Apex Ave, Los Angeles, CA 90026","Latitude":34.0873684316,"Longitude":-118.262960108,"X":-3610678.0387249803,"Y":4754932.2029465633,"Distance from center":5204.8054718692,"Total Restaurants":null},{"level_0":359,"index":359,"Address":"3047 Berkeley Cir, Los Angeles, CA 90026","Latitude":34.0876555779,"Longitude":-118.272222167,"X":-3611578.0387249803,"Y":4755451.818188834,"Distance from center":5747.1732182005,"Total Restaurants":null},{"level_0":286,"index":286,"Address":"107 1\/2 E Ave 36, Los Angeles, CA 90031","Latitude":34.0879953767,"Longitude":-118.2119050933,"X":-3605578.0387249803,"Y":4752334.1267352095,"Distance from center":5992.4953066312,"Total Restaurants":null},{"level_0":303,"index":303,"Address":"587 Cypress Ave, Los Angeles, CA 90065","Latitude":34.0882883063,"Longitude":-118.2211711687,"X":-3606478.0387249803,"Y":4752853.7419774802,"Distance from center":5474.4862772682,"Total Restaurants":null},{"level_0":318,"index":318,"Address":"2354 Fernleaf St, Los Angeles, CA 90031","Latitude":34.0885801537,"Longitude":-118.2304365829,"X":-3607378.0387249803,"Y":4753373.357219751,"Distance from center":5117.6166327694,"Total Restaurants":null},{"level_0":331,"index":331,"Address":"3QQ6+G4 Los Angeles, CA","Latitude":34.088870919,"Longitude":-118.2397013354,"X":-3608278.0387249803,"Y":4753892.9724620217,"Distance from center":4956.8134925573,"Total Restaurants":null},{"level_0":343,"index":343,"Address":"1549 Baxter St, Los Angeles, CA 90026","Latitude":34.0891606025,"Longitude":-118.2489654259,"X":-3609178.0387249803,"Y":4754412.5877042925,"Distance from center":5010.9879265469,"Total Restaurants":null},{"level_0":353,"index":353,"Address":"2150 Duane St, Los Angeles, CA 90039","Latitude":34.0894492043,"Longitude":-118.2582288541,"X":-3610078.0387249803,"Y":4754932.2029465633,"Distance from center":5273.518749374,"Total Restaurants":null},{"level_0":360,"index":360,"Address":"1729 N Occidental Blvd, Los Angeles, CA 90026","Latitude":34.0897367245,"Longitude":-118.2674916195,"X":-3610978.0387249803,"Y":4755451.818188834,"Distance from center":5715.7676649773,"Total Restaurants":null},{"level_0":304,"index":304,"Address":"410 James St, Los Angeles, CA 90065","Latitude":34.0903675093,"Longitude":-118.2164366053,"X":-3605878.0387249803,"Y":4752853.7419774802,"Distance from center":5977.4576535512,"Total Restaurants":null},{"level_0":319,"index":319,"Address":"2641 Merced St, Los Angeles, CA 90065","Latitude":34.0906597312,"Longitude":-118.2257027253,"X":-3606778.0387249803,"Y":4753373.357219751,"Distance from center":5556.0777532354,"Total Restaurants":null},{"level_0":332,"index":332,"Address":"2329 Riverdale Ave, Los Angeles, CA 90031","Latitude":34.0909508709,"Longitude":-118.2349681838,"X":-3607678.0387249803,"Y":4753892.9724620217,"Distance from center":5307.5418038861,"Total Restaurants":null},{"level_0":344,"index":344,"Address":"2327 Vista Gordo Dr, Los Angeles, CA 90026","Latitude":34.0912409286,"Longitude":-118.2442329804,"X":-3608578.0387249803,"Y":4754412.5877042925,"Distance from center":5256.4246403805,"Total Restaurants":null},{"level_0":354,"index":354,"Address":"2117 Lake Shore Ave, Los Angeles, CA 90039","Latitude":34.0915299045,"Longitude":-118.2534971148,"X":-3609478.0387249803,"Y":4754932.2029465633,"Distance from center":5408.3269131959,"Total Restaurants":null},{"level_0":361,"index":361,"Address":"2333 Duane St, Los Angeles, CA 90039","Latitude":34.0918177986,"Longitude":-118.2627605866,"X":-3610378.0387249803,"Y":4755451.818188834,"Distance from center":5747.1732182005,"Total Restaurants":null},{"level_0":333,"index":333,"Address":"1215 N San Fernando Rd, Los Angeles, CA 90065","Latitude":34.09303075,"Longitude":-118.2302345468,"X":-3607078.0387249803,"Y":4753892.9724620217,"Distance from center":5699.9999999998,"Total Restaurants":null},{"level_0":345,"index":345,"Address":"2363 Cabot St, Los Angeles, CA 90031","Latitude":34.093321182,"Longitude":-118.2395000495,"X":-3607978.0387249803,"Y":4754412.5877042925,"Distance from center":5556.0777532355,"Total Restaurants":null},{"level_0":355,"index":355,"Address":"2328 Vestal Ave, Los Angeles, CA 90026","Latitude":34.0936105321,"Longitude":-118.2487648901,"X":-3608878.0387249803,"Y":4754932.2029465633,"Distance from center":5604.4625076808,"Total Restaurants":null},{"level_0":362,"index":362,"Address":"2258 Cove Way, Los Angeles, CA 90039","Latitude":34.0938988002,"Longitude":-118.2580290682,"X":-3609778.0387249803,"Y":4755451.818188834,"Distance from center":5840.3767001796,"Total Restaurants":null},{"level_0":346,"index":346,"Address":"34 2700 Chaucer St, Los Angeles, CA 90065","Latitude":34.0954013627,"Longitude":-118.2347666332,"X":-3607378.0387249803,"Y":4754412.5877042925,"Distance from center":5901.6946718717,"Total Restaurants":null},{"level_0":356,"index":356,"Address":"Golden State Fwy, Los Angeles, CA 90031","Latitude":34.095691087,"Longitude":-118.2440321799,"X":-3608278.0387249803,"Y":4754932.2029465633,"Distance from center":5855.7663887829,"Total Restaurants":null},{"level_0":363,"index":363,"Address":"Allesandro \/ Whitmore, Los Angeles, CA 90039","Latitude":34.0959797293,"Longitude":-118.2532970644,"X":-3609178.0387249803,"Y":4755451.818188834,"Distance from center":5992.4953066315,"Total Restaurants":null}]}